[{"city": "الرياض", "district": "العمل", "lat": 24.644879, "lng": 46.725251, "post_count": 21}, {"city": "الرياض", "district": "النموذجية", "lat": 24.658763, "lng": 46.695292, "post_count": 19}, {"city": "الرياض", "district": "الجرادية", "lat": 24.616083, "lng": 46.696457, "post_count": 39}, {"city": "الرياض", "district": "الصناعية", "lat": 24.639005, "lng": 46.74208, "post_count": 9}, {"city": "الرياض", "district": "منفوحة الجديدة", "lat": 24.611721, "lng": 46.716076, "post_count": 43}, {"city": "الرياض", "district": "الفاخرية", "lat": 24.645233, "lng": 46.68512, "post_count": 10}, {"city": "الرياض", "district": "الديرة", "lat": 24.636839, "lng": 46.709267, "post_count": 12}, {"city": "الرياض", "district": "ام الحمام الشرقي", "lat": 24.69095, "lng": 46.65348, "post_count": 28}, {"city": "الرياض", "district": "الشرفية", "lat": 24.655023, "lng": 46.673862, "post_count": 11}, {"city": "الرياض", "district": "الهدا", "lat": 24.657791, "lng": 46.625487, "post_count": 13}, {"city": "الرياض", "district": "المعذر الشمالي", "lat": 24.686069, "lng": 46.668247, "post_count": 31}, {"city": "الرياض", "district": "ام الحمام الغربي", "lat": 24.700222, "lng": 46.64547, "post_count": 144}, {"city": "الرياض", "district": "الرحمانية", "lat": 24.717627, "lng": 46.66468, "post_count": 71}, {"city": "الرياض", "district": "لبن", "lat": 24.63583, "lng": 46.602698, "post_count": 103}, {"city": "الرياض", "district": "الرفيعة", "lat": 24.639734, "lng": 46.662276, "post_count": 57}, {"city": "الرياض", "district": "الشهداء", "lat": 24.79167, "lng": 46.739083, "post_count": 155}, {"city": "الرياض", "district": "الملك فهد", "lat": 24.740459, "lng": 46.670147, "post_count": 85}, {"city": "الرياض", "district": "السويدي", "lat": 24.592075, "lng": 46.672556, "post_count": 342}, {"city": "الرياض", "district": "الحزم", "lat": 24.534145, "lng": 46.64239, "post_count": 594}, {"city": "الرياض", "district": "عتيقة", "lat": 24.595836, "lng": 46.707971, "post_count": 19}, {"city": "الرياض", "district": "المربع", "lat": 24.664521, "lng": 46.70605, "post_count": 82}, {"city": "الرياض", "district": "الفلاح", "lat": 24.796925, "lng": 46.707725, "post_count": 123}, {"city": "الرياض", "district": "الندى", "lat": 24.80507, "lng": 46.684272, "post_count": 294}, {"city": "الرياض", "district": "المرسلات", "lat": 24.749487, "lng": 46.684437, "post_count": 94}, {"city": "الرياض", "district": "النزهة", "lat": 24.755273, "lng": 46.706092, "post_count": 168}, {"city": "الرياض", "district": "الورود", "lat": 24.72092, "lng": 46.679953, "post_count": 147}, {"city": "الرياض", "district": "الملك فيصل", "lat": 24.763153, "lng": 46.776229, "post_count": 359}, {"city": "الرياض", "district": "العزيزية", "lat": 24.584674, "lng": 46.768262, "post_count": 204}, {"city": "الرياض", "district": "المنصورة", "lat": 24.60817, "lng": 46.745589, "post_count": 23}, {"city": "الرياض", "district": "غبيرة", "lat": 24.623678, "lng": 46.736368, "post_count": 17}, {"city": "الرياض", "district": "الفاروق", "lat": 24.654133, "lng": 46.76822, "post_count": 57}, {"city": "الرياض", "district": "الفيصلية", "lat": 24.641365, "lng": 46.786673, "post_count": 31}, {"city": "الرياض", "district": "الخالدية", "lat": 24.624803, "lng": 46.755929, "post_count": 31}, {"city": "الرياض", "district": "الجزيرة", "lat": 24.669392, "lng": 46.793386, "post_count": 46}, {"city": "الرياض", "district": "السعادة", "lat": 24.691306, "lng": 46.836293, "post_count": 434}, {"city": "الرياض", "district": "الناصرية", "lat": 24.650821, "lng": 46.673035, "post_count": 12}, {"city": "الرياض", "district": "المناخ", "lat": 24.618952, "lng": 46.798186, "post_count": 55}, {"city": "الرياض", "district": "الدفاع", "lat": 24.584561, "lng": 46.837629, "post_count": 3}, {"city": "الرياض", "district": "النور", "lat": 24.619442, "lng": 46.812267, "post_count": 20}, {"city": "الرياض", "district": "الملك عبدالله", "lat": 24.729713, "lng": 46.746266, "post_count": 66}, {"city": "الرياض", "district": "الملك عبدالعزيز", "lat": 24.699243, "lng": 46.721438, "post_count": 105}, {"city": "الرياض", "district": "الوزارات", "lat": 24.686754, "lng": 46.715469, "post_count": 79}, {"city": "الرياض", "district": "سكيرينة", "lat": 24.616707, "lng": 46.717192, "post_count": 4}, {"city": "الرياض", "district": "الربوة", "lat": 24.688024, "lng": 46.76129, "post_count": 102}, {"city": "الرياض", "district": "جرير", "lat": 24.675463, "lng": 46.748216, "post_count": 142}, {"city": "الرياض", "district": "المعذر", "lat": 24.669907, "lng": 46.66613, "post_count": 48}, {"city": "الرياض", "district": "الصالحية", "lat": 24.635851, "lng": 46.734132, "post_count": 14}, {"city": "الرياض", "district": "الملز", "lat": 24.662054, "lng": 46.73335, "post_count": 164}, {"city": "الرياض", "district": "منفوحة", "lat": 24.603045, "lng": 46.725986, "post_count": 42}, {"city": "الرياض", "district": "عليشة", "lat": 24.629844, "lng": 46.684029, "post_count": 11}, {"city": "الرياض", "district": "النهضة", "lat": 24.763156, "lng": 46.822632, "post_count": 487}, {"city": "الرياض", "district": "الخليج", "lat": 24.777667, "lng": 46.804572, "post_count": 835}, {"city": "الرياض", "district": "الضباط", "lat": 24.689256, "lng": 46.719994, "post_count": 138}, {"city": "الرياض", "district": "السويدي الغربي", "lat": 24.574777, "lng": 46.622992, "post_count": 115}, {"city": "الرياض", "district": "ديراب", "lat": 24.50763, "lng": 46.628683, "post_count": 170}, {"city": "الرياض", "district": "احد", "lat": 24.488184, "lng": 46.63519, "post_count": 64}, {"city": "الرياض", "district": "نمار", "lat": 24.569284, "lng": 46.684767, "post_count": 61}, {"city": "الرياض", "district": "الشفا", "lat": 24.562468, "lng": 46.69851, "post_count": 44}, {"city": "الرياض", "district": "المحمدية", "lat": 24.734612, "lng": 46.6465, "post_count": 137}, {"city": "الرياض", "district": "السليمانية", "lat": 24.712614, "lng": 46.692513, "post_count": 458}, {"city": "الرياض", "district": "المروة", "lat": 24.53956, "lng": 46.669883, "post_count": 82}, {"city": "الرياض", "district": "عكاظ", "lat": 24.510654, "lng": 46.66493, "post_count": 961}, {"city": "الرياض", "district": "شبرا", "lat": 24.570516, "lng": 46.653772, "post_count": 205}, {"city": "الرياض", "district": "الزهرة", "lat": 24.578791, "lng": 46.644554, "post_count": 164}, {"city": "الرياض", "district": "سلطانة", "lat": 24.603123, "lng": 46.68824, "post_count": 42}, {"city": "الرياض", "district": "اليمامة", "lat": 24.596596, "lng": 46.716332, "post_count": 64}, {"city": "الرياض", "district": "البديعة", "lat": 24.617871, "lng": 46.681305, "post_count": 31}, {"city": "الرياض", "district": "المصانع", "lat": 24.56824, "lng": 46.747637, "post_count": 28}, {"city": "الرياض", "district": "القادسية", "lat": 24.818676, "lng": 46.824954, "post_count": 996}, {"city": "الرياض", "district": "الصفا", "lat": 24.667292, "lng": 46.776568, "post_count": 27}, {"city": "الرياض", "district": "العليا", "lat": 24.701529, "lng": 46.680244, "post_count": 697}, {"city": "الرياض", "district": "الدريهمية", "lat": 24.59475, "lng": 46.694771, "post_count": 127}, {"city": "الرياض", "district": "السلام", "lat": 24.706936, "lng": 46.814541, "post_count": 118}, {"city": "الرياض", "district": "المنار", "lat": 24.727734, "lng": 46.798632, "post_count": 80}, {"city": "الرياض", "district": "النسيم الشرقي", "lat": 24.739815, "lng": 46.842155, "post_count": 228}, {"city": "الرياض", "district": "القدس", "lat": 24.753447, "lng": 46.757535, "post_count": 208}, {"city": "الرياض", "district": "الوادي", "lat": 24.787929, "lng": 46.691852, "post_count": 524}, {"city": "الرياض", "district": "النفل", "lat": 24.78263, "lng": 46.677312, "post_count": 292}, {"city": "الرياض", "district": "المصيف", "lat": 24.767442, "lng": 46.680117, "post_count": 296}, {"city": "الرياض", "district": "التعاون", "lat": 24.773643, "lng": 46.694652, "post_count": 202}, {"city": "الرياض", "district": "الازدهار", "lat": 24.781154, "lng": 46.721156, "post_count": 279}, {"city": "الرياض", "district": "الاندلس", "lat": 24.744649, "lng": 46.789634, "post_count": 92}, {"city": "الرياض", "district": "الروضة", "lat": 24.734874, "lng": 46.768935, "post_count": 276}, {"city": "الرياض", "district": "الروابي", "lat": 24.694167, "lng": 46.790214, "post_count": 99}, {"city": "الرياض", "district": "الريان", "lat": 24.71438, "lng": 46.783097, "post_count": 152}, {"city": "الرياض", "district": "ظهرة البديعة", "lat": 24.59327, "lng": 46.642502, "post_count": 81}, {"city": "الرياض", "district": "النظيم", "lat": 24.842073, "lng": 46.923915, "post_count": 277}, {"city": "الرياض", "district": "البرية", "lat": 24.56807, "lng": 46.908848, "post_count": 36}, {"city": "الرياض", "district": "طيبة", "lat": 24.55352, "lng": 46.827307, "post_count": 84}, {"city": "الرياض", "district": "المنصورية", "lat": 24.536644, "lng": 46.796778, "post_count": 20}, {"city": "الرياض", "district": "ضاحية نمار", "lat": 24.500907, "lng": 46.53046, "post_count": 652}, {"city": "الرياض", "district": "المصفاة", "lat": 24.506838, "lng": 46.903842, "post_count": 152}, {"city": "الرياض", "district": "قرطبة", "lat": 24.819669, "lng": 46.737185, "post_count": 1386}, {"city": "الرياض", "district": "طويق", "lat": 24.561314, "lng": 46.54937, "post_count": 2754}, {"city": "الرياض", "district": "العوالي", "lat": 24.559986, "lng": 46.602503, "post_count": 650}, {"city": "الرياض", "district": "الربيع", "lat": 24.79665, "lng": 46.662607, "post_count": 189}, {"city": "الرياض", "district": "المغرزات", "lat": 24.758643, "lng": 46.732988, "post_count": 86}, {"city": "الرياض", "district": "السلي", "lat": 24.665076, "lng": 46.847529, "post_count": 158}, {"city": "الرياض", "district": "العقيق", "lat": 24.779877, "lng": 46.627189, "post_count": 1141}, {"city": "الرياض", "district": "النخيل", "lat": 24.746432, "lng": 46.630738, "post_count": 200}, {"city": "الرياض", "district": "الغدير", "lat": 24.776984, "lng": 46.656824, "post_count": 87}, {"city": "الرياض", "district": "المروج", "lat": 24.757057, "lng": 46.664898, "post_count": 165}, {"city": "الرياض", "district": "العود", "lat": 24.631815, "lng": 46.729079, "post_count": 29}, {"city": "الرياض", "district": "ثليم", "lat": 24.641606, "lng": 46.725754, "post_count": 31}, {"city": "الرياض", "district": "الشميسي", "lat": 24.62329, "lng": 46.70036, "post_count": 29}, {"city": "الرياض", "district": "الوشام", "lat": 24.641761, "lng": 46.70032, "post_count": 7}, {"city": "الرياض", "district": "جبرة", "lat": 24.62294, "lng": 46.71881, "post_count": 3}, {"city": "الرياض", "district": "المرقب", "lat": 24.635467, "lng": 46.722581, "post_count": 37}, {"city": "الرياض", "district": "الفوطة", "lat": 24.639791, "lng": 46.715147, "post_count": 10}, {"city": "الرياض", "district": "ام سليم", "lat": 24.632619, "lng": 46.694634, "post_count": 10}, {"city": "الرياض", "district": "الصحافة", "lat": 24.802899, "lng": 46.636561, "post_count": 484}, {"city": "الرياض", "district": "الرائد", "lat": 24.705742, "lng": 46.633008, "post_count": 52}, {"city": "الرياض", "district": "العريجاء الغربي", "lat": 24.588018, "lng": 46.597604, "post_count": 118}, {"city": "الرياض", "district": "العريجاء", "lat": 24.62738, "lng": 46.662209, "post_count": 14}, {"city": "الرياض", "district": "العريجاء الوسطى", "lat": 24.6115, "lng": 46.635941, "post_count": 27}, {"city": "الرياض", "district": "الحمراء", "lat": 24.776935, "lng": 46.762433, "post_count": 269}, {"city": "الرياض", "district": "الدار البيضاء", "lat": 24.56271, "lng": 46.787166, "post_count": 454}, {"city": "الرياض", "district": "الزهراء", "lat": 24.683266, "lng": 46.731523, "post_count": 26}, {"city": "الرياض", "district": "الفيحاء", "lat": 24.681115, "lng": 46.811382, "post_count": 209}, {"city": "الرياض", "district": "المؤتمرات", "lat": 24.670708, "lng": 46.685288, "post_count": 12}, {"city": "الرياض", "district": "الجنادرية", "lat": 24.847909, "lng": 46.892454, "post_count": 1556}, {"city": "الرياض", "district": "اشبيلية", "lat": 24.794843, "lng": 46.794399, "post_count": 436}, {"city": "الرياض", "district": "المعيزلة", "lat": 24.795972, "lng": 46.844281, "post_count": 106}, {"city": "الرياض", "district": "اليرموك", "lat": 24.808436, "lng": 46.784309, "post_count": 1210}, {"city": "الرياض", "district": "المونسية", "lat": 24.83149, "lng": 46.7678, "post_count": 2341}, {"city": "الرياض", "district": "الخزامى", "lat": 24.711756, "lng": 46.613777, "post_count": 3}, {"city": "الرياض", "district": "عرقة", "lat": 24.684607, "lng": 46.586618, "post_count": 243}, {"city": "الرياض", "district": "ظهرة لبن", "lat": 24.62381, "lng": 46.534475, "post_count": 1580}, {"city": "الرياض", "district": "حطين", "lat": 24.77344, "lng": 46.608669, "post_count": 727}, {"city": "الرياض", "district": "الملقا", "lat": 24.804228, "lng": 46.602413, "post_count": 2380}, {"city": "الرياض", "district": "القيروان", "lat": 24.827751, "lng": 46.591319, "post_count": 769}, {"city": "الرياض", "district": "الياسمين", "lat": 24.823963, "lng": 46.644672, "post_count": 1354}, {"city": "الرياض", "district": "العارض", "lat": 24.881377, "lng": 46.619293, "post_count": 2905}, {"city": "الرياض", "district": "مطار الملك خالد", "lat": 24.95819, "lng": 46.62705, "post_count": 7}, {"city": "الرياض", "district": "النرجس", "lat": 24.866203, "lng": 46.657662, "post_count": 3769}, {"city": "الرياض", "district": "بنبان", "lat": 25.021828, "lng": 46.522598, "post_count": 45}, {"city": "الرياض", "district": "الرمال", "lat": 24.868436, "lng": 46.811114, "post_count": 4314}, {"city": "الرياض", "district": "غرناطة", "lat": 24.798965, "lng": 46.75052, "post_count": 204}, {"city": "الرياض", "district": "هيت", "lat": 24.464446, "lng": 46.981668, "post_count": 8}, {"city": "الرياض", "district": "الحائر", "lat": 24.409971, "lng": 46.841987, "post_count": 28}, {"city": "الرياض", "district": "ام الشعال", "lat": 24.343826, "lng": 46.963683, "post_count": 4}, {"city": "الرياض", "district": "الغنامية", "lat": 24.476506, "lng": 46.808428, "post_count": 52}, {"city": "الرياض", "district": "عريض", "lat": 24.445597, "lng": 46.76292, "post_count": 510}, {"city": "الرياض", "district": "بدر", "lat": 24.517042, "lng": 46.73295, "post_count": 1952}, {"city": "الرياض", "district": "المهدية", "lat": 24.660882, "lng": 46.523857, "post_count": 2575}, {"city": "الرياض", "district": "النسيم الغربي", "lat": 24.725872, "lng": 46.826454, "post_count": 341}, {"city": "الرياض", "district": "المشاعل", "lat": 24.614076, "lng": 46.867245, "post_count": 58}, {"city": "الرياض", "district": "الندوة", "lat": 24.79708, "lng": 46.878412, "post_count": 308}, {"city": "الرياض", "district": "وادي لبن", "lat": 24.598441, "lng": 46.53692, "post_count": 5}, {"city": "الرياض", "district": "السدرة", "lat": 24.449138, "lng": 46.879488, "post_count": 4}, {"city": "الرياض", "district": "البساتين", "lat": 25.147015, "lng": 47.196175, "post_count": 3}, {"city": "الرياض", "district": "الرسالة", "lat": 25.03885, "lng": 47.235131, "post_count": 11}, {"city": "الرياض", "district": "الخير", "lat": 25.047502, "lng": 46.425992, "post_count": 297}, {"city": "الرياض", "district": "الفرسان", "lat": 25.016326, "lng": 47.219502, "post_count": 10}, {"city": "الرياض", "district": "الشعلة", "lat": 25.069062, "lng": 47.140402, "post_count": 78}, {"city": "الرياض", "district": "الراية", "lat": 25.032469, "lng": 47.200042, "post_count": 16}, {"city": "الرياض", "district": "الزاهر", "lat": 25.036661, "lng": 47.056282, "post_count": 90}, {"city": "الرياض", "district": "المرجان", "lat": 24.91862, "lng": 46.866722, "post_count": 270}, {"city": "الرياض", "district": "البيان", "lat": 24.882763, "lng": 46.864141, "post_count": 573}, {"city": "الرياض", "district": "العلا", "lat": 25.033692, "lng": 47.144041, "post_count": 64}, {"city": "الرياض", "district": "المشرق", "lat": 24.979413, "lng": 47.038376, "post_count": 62}, {"city": "الرياض", "district": "النخبة", "lat": 25.029273, "lng": 47.262336, "post_count": 49}, {"city": "الرياض", "district": "السحاب", "lat": 24.92924, "lng": 46.936487, "post_count": 15}, {"city": "الرياض", "district": "الوسام", "lat": 24.912824, "lng": 46.90553, "post_count": 46}, {"city": "المجمعة", "district": "اليرموك", "lat": 25.914359, "lng": 45.359808, "post_count": 3}, {"city": "المجمعة", "district": "الملك فهد", "lat": 25.898456, "lng": 45.344517, "post_count": 8}, {"city": "المجمعة", "district": "الملك عبدالعزيز", "lat": 25.906807, "lng": 45.361973, "post_count": 7}, {"city": "المجمعة", "district": "الاندلس", "lat": 25.918991, "lng": 45.371197, "post_count": 14}, {"city": "المجمعة", "district": "المطار", "lat": 25.92134, "lng": 45.382843, "post_count": 7}, {"city": "المجمعة", "district": "الملك عبدالله", "lat": 25.912779, "lng": 45.392051, "post_count": 13}, {"city": "المجمعة", "district": "الجامعيين", "lat": 25.901844, "lng": 45.38183, "post_count": 10}, {"city": "المجمعة", "district": "المستقبل", "lat": 25.897244, "lng": 45.411285, "post_count": 28}, {"city": "جلاجل", "district": "الملك فيصل", "lat": 25.718448, "lng": 45.463519, "post_count": 7}, {"city": "حوطة سدير", "district": "الربعة", "lat": 25.601333, "lng": 45.609351, "post_count": 4}, {"city": "حوطة سدير", "district": "بدر", "lat": 25.601442, "lng": 45.629446, "post_count": 3}, {"city": "حوطة سدير", "district": "المروج", "lat": 25.609767, "lng": 45.633141, "post_count": 3}, {"city": "الارطاوية", "district": "سلطانة", "lat": 26.497368, "lng": 45.351036, "post_count": 3}, {"city": "الارطاوية", "district": "الفيحاء", "lat": 26.493409, "lng": 45.355699, "post_count": 3}, {"city": "الارطاوية", "district": "الورود", "lat": 26.5446, "lng": 45.342418, "post_count": 4}, {"city": "الارطاوية", "district": "المصيف", "lat": 26.51693, "lng": 45.35762, "post_count": 4}, {"city": "الزلفي", "district": "حطين", "lat": 26.328684, "lng": 44.878056, "post_count": 8}, {"city": "الزلفي", "district": "قرطبة", "lat": 26.318286, "lng": 44.843326, "post_count": 3}, {"city": "الزلفي", "district": "العزيزية", "lat": 26.298909, "lng": 44.806462, "post_count": 11}, {"city": "الزلفي", "district": "الخالدية", "lat": 26.294906, "lng": 44.814611, "post_count": 7}, {"city": "الزلفي", "district": "الريان", "lat": 26.308158, "lng": 44.88354, "post_count": 4}, {"city": "الزلفي", "district": "النهضة", "lat": 26.293558, "lng": 44.888386, "post_count": 9}, {"city": "الزلفي", "district": "الفاروق", "lat": 26.307174, "lng": 44.818549, "post_count": 5}, {"city": "الزلفي", "district": "الصديق", "lat": 26.298514, "lng": 44.823609, "post_count": 5}, {"city": "الزلفي", "district": "اليرموك", "lat": 26.316877, "lng": 44.813344, "post_count": 10}, {"city": "الزلفي", "district": "اليمامة", "lat": 26.311838, "lng": 44.797506, "post_count": 5}, {"city": "الزلفي", "district": "المنتزة", "lat": 26.340096, "lng": 44.870974, "post_count": 8}, {"city": "الزلفي", "district": "السلام", "lat": 26.318212, "lng": 44.827446, "post_count": 8}, {"city": "الزلفي", "district": "السيح", "lat": 26.318654, "lng": 44.807084, "post_count": 6}, {"city": "الزلفي", "district": "عريعرة", "lat": 26.332679, "lng": 44.818723, "post_count": 7}, {"city": "الزلفي", "district": "الورود", "lat": 26.338594, "lng": 44.881469, "post_count": 10}, {"city": "الزلفي", "district": "الملك عبدالله", "lat": 26.328744, "lng": 44.794454, "post_count": 3}, {"city": "الزلفي", "district": "الياسمين", "lat": 26.321048, "lng": 44.892121, "post_count": 5}, {"city": "الزلفي", "district": "المنار", "lat": 26.341185, "lng": 44.808411, "post_count": 10}, {"city": "الزلفي", "district": "الندى", "lat": 26.308466, "lng": 44.893331, "post_count": 12}, {"city": "الزلفي", "district": "السيح", "lat": 26.318654, "lng": 44.807084, "post_count": 6}, {"city": "الزلفي", "district": "الملك سلمان", "lat": 26.278291, "lng": 44.829328, "post_count": 3}, {"city": "الغاط", "district": "المصيف", "lat": 26.038769, "lng": 44.939838, "post_count": 5}, {"city": "ثادق", "district": "الجنادرية", "lat": 25.270342, "lng": 45.86183, "post_count": 6}, {"city": "شقراء", "district": "الروضة", "lat": 25.24216, "lng": 45.25382, "post_count": 4}, {"city": "شقراء", "district": "الرحبة", "lat": 25.25606, "lng": 45.232876, "post_count": 3}, {"city": "القصب", "district": "الفيصلية", "lat": 25.299974, "lng": 45.538626, "post_count": 3}, {"city": "الدوادمي", "district": "حطين", "lat": 24.542884, "lng": 44.426998, "post_count": 5}, {"city": "الدوادمي", "district": "الحرمين", "lat": 24.520884, "lng": 44.414781, "post_count": 4}, {"city": "الدوادمي", "district": "الخالدية", "lat": 24.515282, "lng": 44.38446, "post_count": 7}, {"city": "الدوادمي", "district": "الريان", "lat": 24.551161, "lng": 44.443825, "post_count": 7}, {"city": "الدوادمي", "district": "السنبلة", "lat": 24.493639, "lng": 44.354454, "post_count": 6}, {"city": "حريملاء", "district": "النخيل", "lat": 25.127369, "lng": 46.125153, "post_count": 4}, {"city": "حريملاء", "district": "السد", "lat": 25.104884, "lng": 46.089562, "post_count": 3}, {"city": "حريملاء", "district": "النهضة", "lat": 25.108178, "lng": 46.100459, "post_count": 5}, {"city": "الدرعية", "district": "الفيصلية", "lat": 24.746561, "lng": 46.573668, "post_count": 4}, {"city": "الدرعية", "district": "الخالدية", "lat": 24.749207, "lng": 46.569045, "post_count": 4}, {"city": "الدرعية", "district": "العاصمة", "lat": 24.765707, "lng": 46.572007, "post_count": 6}, {"city": "الدرعية", "district": "ظهرة العودة غرب", "lat": 24.739719, "lng": 46.511642, "post_count": 8}, {"city": "الدرعية", "district": "ظهرة العودة شرق", "lat": 24.747689, "lng": 46.5235, "post_count": 19}, {"city": "ضرما", "district": "اليمامة", "lat": 24.611538, "lng": 46.099112, "post_count": 8}, {"city": "ضرما", "district": "العزيزية", "lat": 24.60597, "lng": 46.129124, "post_count": 6}, {"city": "ضرما", "district": "البديع الغربي", "lat": 24.597357, "lng": 46.129061, "post_count": 3}, {"city": "ضرما", "district": "البديع الشرقي", "lat": 24.590202, "lng": 46.135102, "post_count": 4}, {"city": "القويعية", "district": "ابو سليم", "lat": 24.083552, "lng": 45.281277, "post_count": 4}, {"city": "القويعية", "district": "الزهور", "lat": 24.061557, "lng": 45.280977, "post_count": 4}, {"city": "المزاحمية", "district": "الحزيمية", "lat": 24.48261, "lng": 46.297872, "post_count": 5}, {"city": "المزاحمية", "district": "المروج", "lat": 24.47976, "lng": 46.273907, "post_count": 8}, {"city": "المزاحمية", "district": "شخيب", "lat": 24.490813, "lng": 46.263234, "post_count": 3}, {"city": "المزاحمية", "district": "طويق", "lat": 24.474392, "lng": 46.290313, "post_count": 15}, {"city": "المزاحمية", "district": "الأندلس", "lat": 24.465628, "lng": 46.28202, "post_count": 6}, {"city": "المزاحمية", "district": "الهدا", "lat": 24.456541, "lng": 46.269499, "post_count": 16}, {"city": "المزاحمية", "district": "العليا", "lat": 24.460329, "lng": 46.277944, "post_count": 7}, {"city": "المزاحمية", "district": "نواره", "lat": 24.46348, "lng": 46.295716, "post_count": 18}, {"city": "المزاحمية", "district": "وسيلة", "lat": 24.489824, "lng": 46.31402, "post_count": 11}, {"city": "المزاحمية", "district": "اللؤلؤة", "lat": 24.465717, "lng": 46.226299, "post_count": 7}, {"city": "المزاحمية", "district": "الراشدية", "lat": 24.455466, "lng": 46.247911, "post_count": 6}, {"city": "المزاحمية", "district": "الغطغط", "lat": 24.47649, "lng": 46.242548, "post_count": 7}, {"city": "المزاحمية", "district": "الريف", "lat": 24.456864, "lng": 46.258342, "post_count": 8}, {"city": "المزاحمية", "district": "المحمدية", "lat": 24.444292, "lng": 46.25325, "post_count": 3}, {"city": "المزاحمية", "district": "الواحة", "lat": 24.439488, "lng": 46.264656, "post_count": 6}, {"city": "المزاحمية", "district": "الجامعة", "lat": 24.485767, "lng": 46.255488, "post_count": 5}, {"city": "المزاحمية", "district": "الورود", "lat": 24.48116, "lng": 46.267509, "post_count": 13}, {"city": "المزاحمية", "district": "الياسمين", "lat": 24.437715, "lng": 46.294814, "post_count": 3}, {"city": "المزاحمية", "district": "الشلال", "lat": 24.446585, "lng": 46.259509, "post_count": 3}, {"city": "الخرج", "district": "الورود", "lat": 24.167194, "lng": 47.309286, "post_count": 16}, {"city": "الخرج", "district": "السلام", "lat": 24.154762, "lng": 47.317672, "post_count": 27}, {"city": "الخرج", "district": "اليمامة", "lat": 24.18883, "lng": 47.32538, "post_count": 6}, {"city": "الخرج", "district": "الخالدية", "lat": 24.13044, "lng": 47.280651, "post_count": 17}, {"city": "الخرج", "district": "مشرف", "lat": 24.101331, "lng": 47.271811, "post_count": 64}, {"city": "الخرج", "district": "الناصفة", "lat": 24.178227, "lng": 47.298209, "post_count": 13}, {"city": "الخرج", "district": "النهضة", "lat": 24.154062, "lng": 47.327701, "post_count": 20}, {"city": "الخرج", "district": "الفيصلية", "lat": 24.161578, "lng": 47.366345, "post_count": 28}, {"city": "الخرج", "district": "الزاهر", "lat": 24.12222, "lng": 47.391129, "post_count": 11}, {"city": "الخرج", "district": "العالية", "lat": 24.16961, "lng": 47.349605, "post_count": 12}, {"city": "الخرج", "district": "العدامة", "lat": 24.082994, "lng": 47.221065, "post_count": 37}, {"city": "الخرج", "district": "القطار", "lat": 24.261752, "lng": 47.311689, "post_count": 3}, {"city": "الخرج", "district": "الجامعة", "lat": 24.127203, "lng": 47.261505, "post_count": 15}, {"city": "الخرج", "district": "اليرموك", "lat": 24.145658, "lng": 47.388328, "post_count": 25}, {"city": "الخرج", "district": "الهدا", "lat": 24.087937, "lng": 47.294053, "post_count": 21}, {"city": "الدلم", "district": "الخالدية", "lat": 24.022855, "lng": 47.173669, "post_count": 7}, {"city": "الدلم", "district": "الناصرية", "lat": 23.99299, "lng": 47.170592, "post_count": 7}, {"city": "الدلم", "district": "النهضة", "lat": 24.0014, "lng": 47.114723, "post_count": 9}, {"city": "وادي الدواسر", "district": "العقيق", "lat": 20.475996, "lng": 44.77294, "post_count": 3}, {"city": "حوطة بني تميم", "district": "المصيف", "lat": 23.452964, "lng": 46.872547, "post_count": 4}, {"city": "حوطة بني تميم", "district": "السلام", "lat": 23.494702, "lng": 46.870441, "post_count": 3}, {"city": "الطائف", "district": "ضاحية الاسكان", "lat": 21.369088, "lng": 40.619592, "post_count": 3}, {"city": "الطائف", "district": "السيل الكبير", "lat": 21.624508, "lng": 40.426263, "post_count": 10}, {"city": "الطائف", "district": "القمرية", "lat": 21.280498, "lng": 40.428599, "post_count": 3}, {"city": "الطائف", "district": "الجفيجف", "lat": 21.298938, "lng": 40.440068, "post_count": 4}, {"city": "الطائف", "district": "الرحاب", "lat": 21.43998, "lng": 40.428025, "post_count": 21}, {"city": "الطائف", "district": "النسيم", "lat": 21.262162, "lng": 40.465608, "post_count": 3}, {"city": "الطائف", "district": "الواسط", "lat": 21.475472, "lng": 40.468989, "post_count": 3}, {"city": "الطائف", "district": "الاخباب", "lat": 21.226086, "lng": 40.36993, "post_count": 9}, {"city": "الطائف", "district": "السداد", "lat": 21.231045, "lng": 40.414679, "post_count": 3}, {"city": "الطائف", "district": "الحلقة الشرقية", "lat": 21.349504, "lng": 40.452879, "post_count": 4}, {"city": "الطائف", "district": "القيم الأعلى", "lat": 21.337444, "lng": 40.431061, "post_count": 4}, {"city": "مكة المكرمة", "district": "العدل", "lat": 21.451229, "lng": 39.875303, "post_count": 13}, {"city": "مكة المكرمة", "district": "الروضة", "lat": 21.429822, "lng": 39.855551, "post_count": 5}, {"city": "مكة المكرمة", "district": "المعابدة", "lat": 21.43459, "lng": 39.846365, "post_count": 19}, {"city": "مكة المكرمة", "district": "الخنساء", "lat": 21.452394, "lng": 39.84375, "post_count": 7}, {"city": "مكة المكرمة", "district": "الجميزة", "lat": 21.439794, "lng": 39.830624, "post_count": 27}, {"city": "مكة المكرمة", "district": "جبل النور", "lat": 21.45387, "lng": 39.86401, "post_count": 5}, {"city": "مكة المكرمة", "district": "الرصيفة", "lat": 21.409969, "lng": 39.790019, "post_count": 23}, {"city": "مكة المكرمة", "district": "الخالدية", "lat": 21.402233, "lng": 39.798686, "post_count": 21}, {"city": "مكة المكرمة", "district": "التقوى", "lat": 21.3921, "lng": 39.819147, "post_count": 4}, {"city": "مكة المكرمة", "district": "كدي", "lat": 21.389711, "lng": 39.836954, "post_count": 7}, {"city": "مكة المكرمة", "district": "التيسير", "lat": 21.424042, "lng": 39.808704, "post_count": 8}, {"city": "مكة المكرمة", "district": "جرول", "lat": 21.425134, "lng": 39.815761, "post_count": 8}, {"city": "مكة المكرمة", "district": "المرسلات", "lat": 21.401333, "lng": 39.881606, "post_count": 14}, {"city": "مكة المكرمة", "district": "العزيزية", "lat": 21.41654, "lng": 39.857994, "post_count": 35}, {"city": "مكة المكرمة", "district": "الجامعة", "lat": 21.399262, "lng": 39.87211, "post_count": 36}, {"city": "مكة المكرمة", "district": "النسيم", "lat": 21.37324, "lng": 39.874105, "post_count": 20}, {"city": "مكة المكرمة", "district": "الزهراء", "lat": 21.428595, "lng": 39.803472, "post_count": 15}, {"city": "مكة المكرمة", "district": "الحجون", "lat": 21.433678, "lng": 39.812622, "post_count": 3}, {"city": "مكة المكرمة", "district": "الكعكية", "lat": 21.377434, "lng": 39.81175, "post_count": 16}, {"city": "مكة المكرمة", "district": "الشوقية", "lat": 21.384655, "lng": 39.795416, "post_count": 107}, {"city": "مكة المكرمة", "district": "الهجرة", "lat": 21.375281, "lng": 39.839407, "post_count": 25}, {"city": "مكة المكرمة", "district": "بطحاء قريش", "lat": 21.36737, "lng": 39.828236, "post_count": 222}, {"city": "مكة المكرمة", "district": "العوالي", "lat": 21.351857, "lng": 39.897319, "post_count": 69}, {"city": "مكة المكرمة", "district": "الشرائع", "lat": 21.47592, "lng": 39.94776, "post_count": 61}, {"city": "مكة المكرمة", "district": "الراشدية", "lat": 21.482924, "lng": 39.982938, "post_count": 14}, {"city": "مكة المكرمة", "district": "الخضراء", "lat": 21.466158, "lng": 39.914704, "post_count": 38}, {"city": "مكة المكرمة", "district": "الملك فهد", "lat": 21.39801, "lng": 39.772304, "post_count": 95}, {"city": "مكة المكرمة", "district": "العكيشية", "lat": 21.35505, "lng": 39.799672, "post_count": 12}, {"city": "مكة المكرمة", "district": "الاندلس", "lat": 21.44555, "lng": 39.822585, "post_count": 8}, {"city": "مكة المكرمة", "district": "التنعيم", "lat": 21.485231, "lng": 39.808436, "post_count": 28}, {"city": "مكة المكرمة", "district": "الزاهر", "lat": 21.444546, "lng": 39.794861, "post_count": 12}, {"city": "مكة المكرمة", "district": "اجياد", "lat": 21.420688, "lng": 39.830673, "post_count": 7}, {"city": "مكة المكرمة", "district": "النزهة", "lat": 21.43523, "lng": 39.787316, "post_count": 24}, {"city": "مكة المكرمة", "district": "العتيبية", "lat": 21.443537, "lng": 39.81765, "post_count": 6}, {"city": "مكة المكرمة", "district": "الروابي", "lat": 21.408118, "lng": 39.833095, "post_count": 6}, {"city": "مكة المكرمة", "district": "السلامة", "lat": 21.464796, "lng": 39.788928, "post_count": 55}, {"city": "مكة المكرمة", "district": "البحيرات", "lat": 21.490214, "lng": 39.781825, "post_count": 76}, {"city": "مكة المكرمة", "district": "النوارية", "lat": 21.530789, "lng": 39.775778, "post_count": 48}, {"city": "مكة المكرمة", "district": "الشهداء", "lat": 21.457733, "lng": 39.807767, "post_count": 9}, {"city": "مكة المكرمة", "district": "وادي جليل", "lat": 21.471157, "lng": 39.843721, "post_count": 71}, {"city": "مكة المكرمة", "district": "العسيلة", "lat": 21.502344, "lng": 39.878813, "post_count": 13}, {"city": "مكة المكرمة", "district": "جعرانة", "lat": 21.552638, "lng": 39.958622, "post_count": 16}, {"city": "مكة المكرمة", "district": "البيعة", "lat": 21.457382, "lng": 40.018993, "post_count": 15}, {"city": "مكة المكرمة", "district": "المغمس", "lat": 21.445699, "lng": 39.976428, "post_count": 6}, {"city": "مكة المكرمة", "district": "التروية", "lat": 21.46787, "lng": 39.97009, "post_count": 23}, {"city": "مكة المكرمة", "district": "الشرائع", "lat": 21.47592, "lng": 39.94776, "post_count": 61}, {"city": "مكة المكرمة", "district": "السلام", "lat": 21.463462, "lng": 39.955801, "post_count": 6}, {"city": "مكة المكرمة", "district": "الكوثر", "lat": 21.456092, "lng": 39.965447, "post_count": 12}, {"city": "جدة", "district": "الزمرد", "lat": 21.80109, "lng": 39.062597, "post_count": 282}, {"city": "جدة", "district": "اللؤلؤ", "lat": 21.766227, "lng": 39.064582, "post_count": 166}, {"city": "جدة", "district": "الياقوت", "lat": 21.783391, "lng": 39.081334, "post_count": 381}, {"city": "جدة", "district": "الصوارى", "lat": 21.788516, "lng": 39.102984, "post_count": 1320}, {"city": "جدة", "district": "الامواج", "lat": 21.752596, "lng": 39.078004, "post_count": 57}, {"city": "جدة", "district": "الشراع", "lat": 21.765482, "lng": 39.094176, "post_count": 306}, {"city": "جدة", "district": "الفردوس", "lat": 21.782305, "lng": 39.115938, "post_count": 28}, {"city": "جدة", "district": "الفلاح", "lat": 21.783176, "lng": 39.190062, "post_count": 184}, {"city": "جدة", "district": "الاصالة", "lat": 21.773483, "lng": 39.162424, "post_count": 28}, {"city": "جدة", "district": "مريخ", "lat": 21.545305, "lng": 39.28907, "post_count": 414}, {"city": "جدة", "district": "الرياض", "lat": 21.864625, "lng": 39.1861, "post_count": 541}, {"city": "جدة", "district": "الفروسية", "lat": 21.82733, "lng": 39.209491, "post_count": 90}, {"city": "جدة", "district": "الرحمانية", "lat": 21.791731, "lng": 39.214961, "post_count": 518}, {"city": "جدة", "district": "الصالحية", "lat": 21.765308, "lng": 39.219292, "post_count": 265}, {"city": "جدة", "district": "الحمدانية", "lat": 21.756061, "lng": 39.194251, "post_count": 192}, {"city": "جدة", "district": "الريان", "lat": 21.68519, "lng": 39.213752, "post_count": 1031}, {"city": "جدة", "district": "أم حبلين الغربية", "lat": 21.708024, "lng": 39.216072, "post_count": 99}, {"city": "جدة", "district": "بريمان", "lat": 21.656567, "lng": 39.221516, "post_count": 27}, {"city": "جدة", "district": "العدل", "lat": 21.442731, "lng": 39.285551, "post_count": 8}, {"city": "جدة", "district": "المحجر", "lat": 21.441127, "lng": 39.201788, "post_count": 5}, {"city": "جدة", "district": "النهضة", "lat": 21.612695, "lng": 39.126491, "post_count": 887}, {"city": "جدة", "district": "الخالدية", "lat": 21.567766, "lng": 39.137154, "post_count": 72}, {"city": "جدة", "district": "جامعة الملك عبدالعزيز", "lat": 21.49628, "lng": 39.25258, "post_count": 5}, {"city": "جدة", "district": "النخيل", "lat": 21.521758, "lng": 39.258062, "post_count": 46}, {"city": "جدة", "district": "البغدادية الشرقية", "lat": 21.501836, "lng": 39.199014, "post_count": 6}, {"city": "جدة", "district": "البوادي", "lat": 21.608335, "lng": 39.163075, "post_count": 408}, {"city": "جدة", "district": "السلامة", "lat": 21.592189, "lng": 39.153575, "post_count": 2697}, {"city": "جدة", "district": "الثغر", "lat": 21.477455, "lng": 39.230909, "post_count": 5}, {"city": "جدة", "district": "الشرفية", "lat": 21.519931, "lng": 39.18889, "post_count": 42}, {"city": "جدة", "district": "السنابل", "lat": 21.397276, "lng": 39.274197, "post_count": 24}, {"city": "جدة", "district": "البركة", "lat": 21.250319, "lng": 39.277641, "post_count": 5}, {"city": "جدة", "district": "المسرة", "lat": 21.249619, "lng": 39.24864, "post_count": 9}, {"city": "جدة", "district": "المليساء", "lat": 21.264522, "lng": 39.21282, "post_count": 20}, {"city": "جدة", "district": "الوادي", "lat": 21.317879, "lng": 39.176984, "post_count": 5}, {"city": "جدة", "district": "الفضيلة", "lat": 21.3064, "lng": 39.271287, "post_count": 74}, {"city": "جدة", "district": "التعاون", "lat": 21.339954, "lng": 39.26353, "post_count": 26}, {"city": "جدة", "district": "السروات", "lat": 21.35457, "lng": 39.204938, "post_count": 7}, {"city": "جدة", "district": "الخمرة", "lat": 21.335003, "lng": 39.247315, "post_count": 38}, {"city": "جدة", "district": "القرينية", "lat": 21.309694, "lng": 39.24792, "post_count": 112}, {"city": "جدة", "district": "النزلة اليمانية", "lat": 21.462083, "lng": 39.20811, "post_count": 3}, {"city": "جدة", "district": "النسيم", "lat": 21.515551, "lng": 39.233908, "post_count": 94}, {"city": "جدة", "district": "غليل", "lat": 21.45126, "lng": 39.205083, "post_count": 3}, {"city": "جدة", "district": "الروضة", "lat": 21.57348, "lng": 39.162006, "post_count": 1991}, {"city": "جدة", "district": "بنى مالك", "lat": 21.536979, "lng": 39.234868, "post_count": 189}, {"city": "جدة", "district": "الفيصلية", "lat": 21.56929, "lng": 39.182545, "post_count": 703}, {"city": "جدة", "district": "الرحاب", "lat": 21.557724, "lng": 39.22196, "post_count": 151}, {"city": "جدة", "district": "العزيزية", "lat": 21.551963, "lng": 39.192692, "post_count": 251}, {"city": "جدة", "district": "مشرفة", "lat": 21.53898, "lng": 39.194394, "post_count": 199}, {"city": "جدة", "district": "الورود", "lat": 21.516414, "lng": 39.200351, "post_count": 116}, {"city": "جدة", "district": "الواحة", "lat": 21.561469, "lng": 39.2417, "post_count": 861}, {"city": "جدة", "district": "ابرق الرغامة", "lat": 21.50158, "lng": 39.278528, "post_count": 33}, {"city": "جدة", "district": "السليمانية", "lat": 21.503526, "lng": 39.252669, "post_count": 126}, {"city": "جدة", "district": "الساحل", "lat": 21.315495, "lng": 39.13928, "post_count": 20}, {"city": "جدة", "district": "البشائر", "lat": 21.802822, "lng": 39.17953, "post_count": 94}, {"city": "جدة", "district": "المحمدية", "lat": 21.6522, "lng": 39.127298, "post_count": 129}, {"city": "جدة", "district": "الكوثر", "lat": 21.728672, "lng": 39.201188, "post_count": 58}, {"city": "جدة", "district": "طيبة", "lat": 21.80508, "lng": 39.139239, "post_count": 187}, {"city": "جدة", "district": "النعيم", "lat": 21.616972, "lng": 39.145542, "post_count": 1594}, {"city": "جدة", "district": "البساتين", "lat": 21.687803, "lng": 39.11534, "post_count": 131}, {"city": "جدة", "district": "الربوة", "lat": 21.597501, "lng": 39.183242, "post_count": 535}, {"city": "جدة", "district": "النزهة", "lat": 21.62339, "lng": 39.167059, "post_count": 1838}, {"city": "جدة", "district": "الصفا", "lat": 21.58474, "lng": 39.210766, "post_count": 421}, {"city": "جدة", "district": "المروة", "lat": 21.615271, "lng": 39.206537, "post_count": 1192}, {"city": "جدة", "district": "السامر", "lat": 21.58379, "lng": 39.24534, "post_count": 77}, {"city": "جدة", "district": "الاجواد", "lat": 21.603516, "lng": 39.250148, "post_count": 84}, {"city": "جدة", "district": "المنار", "lat": 21.59985, "lng": 39.232209, "post_count": 416}, {"city": "جدة", "district": "الامير عبدالمجيد", "lat": 21.432866, "lng": 39.270232, "post_count": 39}, {"city": "جدة", "district": "الجوهرة", "lat": 21.437796, "lng": 39.25219, "post_count": 14}, {"city": "جدة", "district": "الامير فواز الجنوبى", "lat": 21.424926, "lng": 39.304071, "post_count": 9}, {"city": "جدة", "district": "الجامعة", "lat": 21.485383, "lng": 39.259073, "post_count": 685}, {"city": "جدة", "district": "الروابي", "lat": 21.48191, "lng": 39.265407, "post_count": 105}, {"city": "جدة", "district": "ام السلم", "lat": 21.460592, "lng": 39.333066, "post_count": 68}, {"city": "جدة", "district": "البغدادية الغربية", "lat": 21.498998, "lng": 39.174254, "post_count": 40}, {"city": "جدة", "district": "ابحر الشمالية", "lat": 21.758255, "lng": 39.11395, "post_count": 201}, {"city": "جدة", "district": "الرويس", "lat": 21.511365, "lng": 39.174095, "post_count": 133}, {"city": "جدة", "district": "الاندلس", "lat": 21.549869, "lng": 39.165501, "post_count": 22}, {"city": "جدة", "district": "ابحر الجنوبية", "lat": 21.749267, "lng": 39.1403, "post_count": 185}, {"city": "جدة", "district": "المرجان", "lat": 21.68755, "lng": 39.104546, "post_count": 71}, {"city": "جدة", "district": "السرورية", "lat": 21.393137, "lng": 39.208589, "post_count": 19}, {"city": "جدة", "district": "الاجاويد", "lat": 21.402365, "lng": 39.300809, "post_count": 44}, {"city": "جدة", "district": "الشاطئ", "lat": 21.595745, "lng": 39.111613, "post_count": 201}, {"city": "جدة", "district": "مدائن الفهد", "lat": 21.457915, "lng": 39.242572, "post_count": 22}, {"city": "جدة", "district": "الزهراء", "lat": 21.589362, "lng": 39.134908, "post_count": 948}, {"city": "جدة", "district": "الحمراء", "lat": 21.535977, "lng": 39.165343, "post_count": 459}, {"city": "جدة", "district": "الفيحاء", "lat": 21.503221, "lng": 39.229123, "post_count": 444}, {"city": "جدة", "district": "الوفاء", "lat": 21.85356, "lng": 39.233113, "post_count": 184}, {"city": "جدة", "district": "الفنار", "lat": 21.824226, "lng": 39.07136, "post_count": 108}, {"city": "جدة", "district": "السهل", "lat": 21.386639, "lng": 39.432798, "post_count": 4}, {"city": "جدة", "district": "الدرة", "lat": 21.955152, "lng": 39.026605, "post_count": 33}, {"city": "جدة", "district": "المنارات", "lat": 21.823586, "lng": 39.089366, "post_count": 98}, {"city": "جدة", "district": "الربيع", "lat": 21.935682, "lng": 39.026286, "post_count": 10}, {"city": "جدة", "district": "الحجاز", "lat": 21.810543, "lng": 39.234828, "post_count": 4}, {"city": "جدة", "district": "الصفوة", "lat": 21.888372, "lng": 39.214853, "post_count": 77}, {"city": "جدة", "district": "النجمة", "lat": 21.897756, "lng": 39.070676, "post_count": 32}, {"city": "جدة", "district": "الجزيرة", "lat": 21.977214, "lng": 39.04332, "post_count": 51}, {"city": "جدة", "district": "الشويضي", "lat": 21.923393, "lng": 39.078095, "post_count": 11}, {"city": "جدة", "district": "العشيرية", "lat": 21.898527, "lng": 39.127411, "post_count": 9}, {"city": "جدة", "district": "المروج", "lat": 21.854942, "lng": 39.000939, "post_count": 51}, {"city": "جدة", "district": "الخليج", "lat": 21.899513, "lng": 39.042254, "post_count": 7}, {"city": "جدة", "district": "البحيرات", "lat": 21.821662, "lng": 39.039926, "post_count": 79}, {"city": "جدة", "district": "الغربية", "lat": 21.915076, "lng": 39.11736, "post_count": 12}, {"city": "جدة", "district": "الزهور", "lat": 21.894332, "lng": 39.108404, "post_count": 6}, {"city": "جدة", "district": "بلدة ذهبان", "lat": 21.934052, "lng": 39.118213, "post_count": 14}, {"city": "جدة", "district": "حكومي", "lat": 21.82722, "lng": 39.14727, "post_count": 40}, {"city": "جدة", "district": "النور", "lat": 21.860476, "lng": 39.06722, "post_count": 70}, {"city": "جدة", "district": "حكومي", "lat": 21.82722, "lng": 39.14727, "post_count": 40}, {"city": "جدة", "district": "الغدير", "lat": 21.92477, "lng": 39.058943, "post_count": 36}, {"city": "جدة", "district": "الفرقان", "lat": 21.988672, "lng": 39.102954, "post_count": 24}, {"city": "جدة", "district": "قباء", "lat": 21.822965, "lng": 39.134316, "post_count": 24}, {"city": "جدة", "district": "الصفحة", "lat": 21.868178, "lng": 39.247877, "post_count": 4}, {"city": "جدة", "district": "اليسر", "lat": 21.977687, "lng": 39.065174, "post_count": 17}, {"city": "جدة", "district": "العبير", "lat": 21.946978, "lng": 39.061869, "post_count": 11}, {"city": "رابغ", "district": "المرجانية", "lat": 22.792573, "lng": 39.059912, "post_count": 29}, {"city": "خليص", "district": "الفيصلية", "lat": 22.196441, "lng": 39.285602, "post_count": 3}, {"city": "الجموم", "district": "النخيل", "lat": 21.613312, "lng": 39.693026, "post_count": 9}, {"city": "المدينة المنورة", "district": "السكب", "lat": 24.356107, "lng": 39.565721, "post_count": 103}, {"city": "المدينة المنورة", "district": "الجصة", "lat": 24.35818, "lng": 39.609728, "post_count": 34}, {"city": "المدينة المنورة", "district": "رهط", "lat": 24.375546, "lng": 39.629509, "post_count": 9}, {"city": "المدينة المنورة", "district": "بني بياضة", "lat": 24.382649, "lng": 39.591429, "post_count": 52}, {"city": "المدينة المنورة", "district": "نبلاء", "lat": 24.382537, "lng": 39.664053, "post_count": 119}, {"city": "المدينة المنورة", "district": "الرمانة", "lat": 24.390724, "lng": 39.678769, "post_count": 13}, {"city": "المدينة المنورة", "district": "ابو كبير", "lat": 24.396618, "lng": 39.528747, "post_count": 5}, {"city": "المدينة المنورة", "district": "الغراء", "lat": 24.412739, "lng": 39.673045, "post_count": 37}, {"city": "المدينة المنورة", "district": "السد", "lat": 24.40172, "lng": 39.635557, "post_count": 43}, {"city": "المدينة المنورة", "district": "الجابرة", "lat": 24.412488, "lng": 39.585833, "post_count": 24}, {"city": "المدينة المنورة", "district": "الرانوناء", "lat": 24.386794, "lng": 39.602822, "post_count": 182}, {"city": "المدينة المنورة", "district": "الحديقة", "lat": 24.42016, "lng": 39.614269, "post_count": 9}, {"city": "المدينة المنورة", "district": "الروابي", "lat": 24.4135, "lng": 39.65602, "post_count": 80}, {"city": "المدينة المنورة", "district": "القصواء", "lat": 24.427526, "lng": 39.589065, "post_count": 29}, {"city": "المدينة المنورة", "district": "الخاتم", "lat": 24.423472, "lng": 39.621298, "post_count": 5}, {"city": "المدينة المنورة", "district": "العزيزية", "lat": 24.4239, "lng": 39.496594, "post_count": 74}, {"city": "المدينة المنورة", "district": "العهن", "lat": 24.426554, "lng": 39.634607, "post_count": 7}, {"city": "المدينة المنورة", "district": "ذو الحليفة", "lat": 24.439021, "lng": 39.573919, "post_count": 14}, {"city": "المدينة المنورة", "district": "وادي مهزور", "lat": 24.440704, "lng": 39.657896, "post_count": 12}, {"city": "المدينة المنورة", "district": "الدويمة", "lat": 24.446664, "lng": 39.609492, "post_count": 6}, {"city": "المدينة المنورة", "district": "وادي مذينب", "lat": 24.435426, "lng": 39.672376, "post_count": 100}, {"city": "المدينة المنورة", "district": "عين الخيف", "lat": 24.438455, "lng": 39.689717, "post_count": 71}, {"city": "المدينة المنورة", "district": "عروة", "lat": 24.446716, "lng": 39.58497, "post_count": 5}, {"city": "المدينة المنورة", "district": "الظاهرة", "lat": 24.446497, "lng": 39.600197, "post_count": 21}, {"city": "المدينة المنورة", "district": "الشريبات", "lat": 24.450619, "lng": 39.641876, "post_count": 6}, {"city": "المدينة المنورة", "district": "الجمعة", "lat": 24.447732, "lng": 39.619708, "post_count": 4}, {"city": "المدينة المنورة", "district": "المغيسلة", "lat": 24.454772, "lng": 39.605752, "post_count": 16}, {"city": "المدينة المنورة", "district": "الدفاع", "lat": 24.446678, "lng": 39.518356, "post_count": 151}, {"city": "المدينة المنورة", "district": "سكة الحديد", "lat": 24.448532, "lng": 39.494454, "post_count": 44}, {"city": "المدينة المنورة", "district": "الاصيفرين", "lat": 24.461458, "lng": 39.59107, "post_count": 13}, {"city": "المدينة المنورة", "district": "بني ظفر", "lat": 24.464746, "lng": 39.632802, "post_count": 8}, {"city": "المدينة المنورة", "district": "الاسكان", "lat": 24.465106, "lng": 39.644604, "post_count": 24}, {"city": "المدينة المنورة", "district": "الخالدية", "lat": 24.463251, "lng": 39.660332, "post_count": 32}, {"city": "المدينة المنورة", "district": "الجماوات", "lat": 24.465101, "lng": 39.56394, "post_count": 33}, {"city": "المدينة المنورة", "district": "جشم", "lat": 24.457109, "lng": 39.67815, "post_count": 18}, {"city": "المدينة المنورة", "district": "الهدراء", "lat": 24.43742, "lng": 39.70097, "post_count": 6}, {"city": "المدينة المنورة", "district": "السيح", "lat": 24.469727, "lng": 39.595439, "post_count": 8}, {"city": "المدينة المنورة", "district": "المصانع", "lat": 24.484309, "lng": 39.608977, "post_count": 9}, {"city": "المدينة المنورة", "district": "القبلتين", "lat": 24.480984, "lng": 39.572599, "post_count": 22}, {"city": "المدينة المنورة", "district": "السلام", "lat": 24.478734, "lng": 39.495986, "post_count": 98}, {"city": "المدينة المنورة", "district": "المبعوث", "lat": 24.483883, "lng": 39.683384, "post_count": 32}, {"city": "المدينة المنورة", "district": "الجامعة", "lat": 24.475319, "lng": 39.561281, "post_count": 11}, {"city": "المدينة المنورة", "district": "بني حارثة", "lat": 24.488379, "lng": 39.627749, "post_count": 27}, {"city": "المدينة المنورة", "district": "بئر عثمان", "lat": 24.489013, "lng": 39.579944, "post_count": 14}, {"city": "المدينة المنورة", "district": "شظاة", "lat": 24.49145, "lng": 39.657082, "post_count": 45}, {"city": "المدينة المنورة", "district": "طيبة", "lat": 24.492649, "lng": 39.508798, "post_count": 70}, {"city": "المدينة المنورة", "district": "التلعة", "lat": 24.505539, "lng": 39.653051, "post_count": 3}, {"city": "المدينة المنورة", "district": "الملك فهد", "lat": 24.50023, "lng": 39.697507, "post_count": 109}, {"city": "المدينة المنورة", "district": "البركة", "lat": 24.508032, "lng": 39.568995, "post_count": 17}, {"city": "المدينة المنورة", "district": "العيون", "lat": 24.503352, "lng": 39.588553, "post_count": 19}, {"city": "المدينة المنورة", "district": "النخيل", "lat": 24.523535, "lng": 39.541526, "post_count": 7}, {"city": "المدينة المنورة", "district": "الزهرة", "lat": 24.534471, "lng": 39.568609, "post_count": 26}, {"city": "المدينة المنورة", "district": "البلقاء", "lat": 24.531228, "lng": 39.453484, "post_count": 18}, {"city": "المدينة المنورة", "district": "كتانة", "lat": 24.559983, "lng": 39.559406, "post_count": 14}, {"city": "المدينة المنورة", "district": "الغابة", "lat": 24.568862, "lng": 39.599299, "post_count": 13}, {"city": "المدينة المنورة", "district": "وعيرة", "lat": 24.534302, "lng": 39.676954, "post_count": 9}, {"city": "المدينة المنورة", "district": "المطار", "lat": 24.543376, "lng": 39.683513, "post_count": 40}, {"city": "المدينة المنورة", "district": "العريض", "lat": 24.48084, "lng": 39.644002, "post_count": 64}, {"city": "المدينة المنورة", "district": "العنابس", "lat": 24.471136, "lng": 39.585369, "post_count": 19}, {"city": "المدينة المنورة", "district": "الفتح", "lat": 24.481422, "lng": 39.591779, "post_count": 11}, {"city": "المدينة المنورة", "district": "الراية", "lat": 24.48521, "lng": 39.598914, "post_count": 15}, {"city": "المدينة المنورة", "district": "السقيا", "lat": 24.464718, "lng": 39.596657, "post_count": 4}, {"city": "المدينة المنورة", "district": "جبل عير", "lat": 24.388741, "lng": 39.56063, "post_count": 8}, {"city": "المدينة المنورة", "district": "الشافية", "lat": 24.551448, "lng": 39.623421, "post_count": 28}, {"city": "المدينة المنورة", "district": "الشهداء", "lat": 24.499291, "lng": 39.605689, "post_count": 3}, {"city": "المدينة المنورة", "district": "جبل احد", "lat": 24.514541, "lng": 39.604239, "post_count": 5}, {"city": "المدينة المنورة", "district": "بني معاوية", "lat": 24.474696, "lng": 39.627087, "post_count": 16}, {"city": "المدينة المنورة", "district": "ورقان", "lat": 24.375629, "lng": 39.520742, "post_count": 26}, {"city": "المدينة المنورة", "district": "شوران", "lat": 24.401604, "lng": 39.62172, "post_count": 157}, {"city": "المدينة المنورة", "district": "الصناعية", "lat": 24.362705, "lng": 39.511671, "post_count": 43}, {"city": "المدينة المنورة", "district": "الدويخلة", "lat": 24.502989, "lng": 39.679718, "post_count": 22}, {"city": "المدينة المنورة", "district": "العاقول", "lat": 24.513942, "lng": 39.720926, "post_count": 70}, {"city": "المدينة المنورة", "district": "وادي البطان", "lat": 24.513189, "lng": 39.782159, "post_count": 35}, {"city": "المدينة المنورة", "district": "المليليح", "lat": 24.809695, "lng": 39.195677, "post_count": 14}, {"city": "المدينة المنورة", "district": "الاناهي", "lat": 24.463788, "lng": 39.718665, "post_count": 52}, {"city": "المدينة المنورة", "district": "حى الخضراء", "lat": 24.568159, "lng": 39.748871, "post_count": 76}, {"city": "المدينة المنورة", "district": "حى الصهلوج", "lat": 24.461573, "lng": 39.449283, "post_count": 9}, {"city": "المدينة المنورة", "district": "المندسة", "lat": 24.572126, "lng": 39.340092, "post_count": 40}, {"city": "المدينة المنورة", "district": "حى القبيبة", "lat": 24.611613, "lng": 39.690527, "post_count": 7}, {"city": "المدينة المنورة", "district": "حى ابو سدر", "lat": 24.597662, "lng": 39.690997, "post_count": 11}, {"city": "المدينة المنورة", "district": "حى سد الغابة", "lat": 24.575835, "lng": 39.597616, "post_count": 11}, {"city": "المدينة المنورة", "district": "حى الحساء", "lat": 24.363594, "lng": 39.544029, "post_count": 12}, {"city": "المدينة المنورة", "district": "المدينة الصناعية", "lat": 24.352349, "lng": 39.518947, "post_count": 53}, {"city": "المدينة المنورة", "district": "الصويدرة", "lat": 24.688157, "lng": 40.134105, "post_count": 35}, {"city": "المدينة المنورة", "district": "ابيار الماشي", "lat": 24.145321, "lng": 39.519162, "post_count": 49}, {"city": "بريدة", "district": "اليرموك", "lat": 26.236535, "lng": 44.018537, "post_count": 24}, {"city": "بريدة", "district": "الرمال", "lat": 26.340061, "lng": 44.018744, "post_count": 23}, {"city": "بريدة", "district": "الخضر", "lat": 26.24822, "lng": 43.998787, "post_count": 12}, {"city": "بريدة", "district": "اللسيب", "lat": 26.261381, "lng": 43.932324, "post_count": 43}, {"city": "بريدة", "district": "النور", "lat": 26.459855, "lng": 43.880892, "post_count": 46}, {"city": "بريدة", "district": "القصيعة", "lat": 26.26556, "lng": 43.956573, "post_count": 13}, {"city": "بريدة", "district": "الغدير", "lat": 26.277071, "lng": 44.031552, "post_count": 23}, {"city": "بريدة", "district": "السالمية", "lat": 26.285402, "lng": 43.990208, "post_count": 16}, {"city": "بريدة", "district": "الروابي", "lat": 26.294082, "lng": 44.04232, "post_count": 16}, {"city": "بريدة", "district": "حويلان", "lat": 26.303029, "lng": 43.942221, "post_count": 8}, {"city": "بريدة", "district": "واسط", "lat": 26.304098, "lng": 43.960322, "post_count": 16}, {"city": "بريدة", "district": "الخليج", "lat": 26.309211, "lng": 43.972052, "post_count": 11}, {"city": "بريدة", "district": "خب البريدي", "lat": 26.322288, "lng": 43.933533, "post_count": 3}, {"city": "بريدة", "district": "السادة", "lat": 26.321093, "lng": 43.986968, "post_count": 3}, {"city": "بريدة", "district": "الموطا", "lat": 26.318162, "lng": 43.95973, "post_count": 4}, {"city": "بريدة", "district": "التعليم", "lat": 26.326326, "lng": 43.984482, "post_count": 4}, {"city": "بريدة", "district": "الشروق", "lat": 26.329614, "lng": 44.042431, "post_count": 18}, {"city": "بريدة", "district": "خب الثنيان", "lat": 26.33263, "lng": 43.931591, "post_count": 6}, {"city": "بريدة", "district": "الشماس", "lat": 26.331809, "lng": 43.966895, "post_count": 5}, {"city": "بريدة", "district": "القادسية", "lat": 26.328321, "lng": 43.952348, "post_count": 3}, {"city": "بريدة", "district": "الخبيب", "lat": 26.336958, "lng": 43.973889, "post_count": 4}, {"city": "بريدة", "district": "المرقب", "lat": 26.340124, "lng": 43.957553, "post_count": 4}, {"city": "بريدة", "district": "الربيع", "lat": 26.343076, "lng": 43.987521, "post_count": 5}, {"city": "بريدة", "district": "الرفيعة", "lat": 26.334614, "lng": 43.997236, "post_count": 13}, {"city": "بريدة", "district": "الزرقاء", "lat": 26.341731, "lng": 43.922609, "post_count": 13}, {"city": "بريدة", "district": "الشفق", "lat": 26.363019, "lng": 43.857202, "post_count": 57}, {"city": "بريدة", "district": "القاع البارد", "lat": 26.354214, "lng": 44.027405, "post_count": 17}, {"city": "بريدة", "district": "المنار", "lat": 26.353151, "lng": 43.93373, "post_count": 23}, {"city": "بريدة", "district": "الربوة", "lat": 26.356365, "lng": 43.985227, "post_count": 17}, {"city": "بريدة", "district": "الصفراء", "lat": 26.364874, "lng": 43.955524, "post_count": 15}, {"city": "بريدة", "district": "الفايزية", "lat": 26.373225, "lng": 43.974005, "post_count": 12}, {"city": "بريدة", "district": "النخيل", "lat": 26.369596, "lng": 43.896908, "post_count": 56}, {"city": "بريدة", "district": "الروضه", "lat": 26.382467, "lng": 43.919487, "post_count": 29}, {"city": "بريدة", "district": "النفل", "lat": 26.3733, "lng": 44.033661, "post_count": 11}, {"city": "بريدة", "district": "الإسكان", "lat": 26.386066, "lng": 43.935532, "post_count": 20}, {"city": "بريدة", "district": "الأخضر", "lat": 26.39491, "lng": 43.968618, "post_count": 22}, {"city": "بريدة", "district": "الشقة", "lat": 26.385101, "lng": 43.845532, "post_count": 85}, {"city": "بريدة", "district": "الرابية", "lat": 26.392535, "lng": 43.985343, "post_count": 6}, {"city": "بريدة", "district": "الريان", "lat": 26.399535, "lng": 43.917874, "post_count": 48}, {"city": "بريدة", "district": "النهضة", "lat": 26.40816, "lng": 43.93117, "post_count": 48}, {"city": "بريدة", "district": "الافق", "lat": 26.390056, "lng": 43.954736, "post_count": 20}, {"city": "بريدة", "district": "الخزامى", "lat": 26.414276, "lng": 43.982993, "post_count": 13}, {"city": "بريدة", "district": "الجزيرة", "lat": 26.404227, "lng": 43.891316, "post_count": 42}, {"city": "بريدة", "district": "الرحاب", "lat": 26.425986, "lng": 43.893711, "post_count": 71}, {"city": "بريدة", "district": "الحزم", "lat": 26.42921, "lng": 43.915673, "post_count": 75}, {"city": "عنيزة", "district": "الدوحة", "lat": 26.034749, "lng": 43.974634, "post_count": 7}, {"city": "عنيزة", "district": "الحاجب", "lat": 26.03281, "lng": 43.966549, "post_count": 6}, {"city": "عنيزة", "district": "الرمال", "lat": 26.06264, "lng": 43.953293, "post_count": 27}, {"city": "عنيزة", "district": "الحفيرة", "lat": 26.070102, "lng": 43.921754, "post_count": 3}, {"city": "عنيزة", "district": "الملك خالد", "lat": 26.089343, "lng": 44.036776, "post_count": 28}, {"city": "عنيزة", "district": "الملك فهد", "lat": 26.101577, "lng": 44.03079, "post_count": 68}, {"city": "عنيزة", "district": "الرياضى", "lat": 26.079272, "lng": 44.057367, "post_count": 19}, {"city": "عنيزة", "district": "الشفاء", "lat": 26.083862, "lng": 43.999894, "post_count": 45}, {"city": "عنيزة", "district": "السليمانية", "lat": 26.08791, "lng": 44.02144, "post_count": 30}, {"city": "عنيزة", "district": "الصالحية", "lat": 26.104773, "lng": 43.988079, "post_count": 13}, {"city": "عنيزة", "district": "الرحمانية", "lat": 26.134036, "lng": 43.947292, "post_count": 3}, {"city": "عنيزة", "district": "الوهلان", "lat": 26.100738, "lng": 43.934254, "post_count": 64}, {"city": "عنيزة", "district": "العليا", "lat": 26.117554, "lng": 43.962169, "post_count": 29}, {"city": "عنيزة", "district": "وسط المدينة", "lat": 26.099394, "lng": 43.963041, "post_count": 20}, {"city": "عنيزة", "district": "الريان", "lat": 26.073843, "lng": 43.97072, "post_count": 61}, {"city": "عنيزة", "district": "الفاخرية", "lat": 26.076069, "lng": 43.985863, "post_count": 39}, {"city": "عنيزة", "district": "السلام", "lat": 26.080759, "lng": 43.952313, "post_count": 61}, {"city": "عنيزة", "district": "العونية", "lat": 26.085554, "lng": 43.935712, "post_count": 52}, {"city": "عنيزة", "district": "الحمراء", "lat": 26.028766, "lng": 43.970518, "post_count": 24}, {"city": "عنيزة", "district": "الفيحاء", "lat": 26.045455, "lng": 44.00482, "post_count": 10}, {"city": "عنيزة", "district": "المروج", "lat": 26.121802, "lng": 44.012741, "post_count": 50}, {"city": "عنيزة", "district": "المنار", "lat": 26.099241, "lng": 44.020157, "post_count": 77}, {"city": "عنيزة", "district": "الاشرفية", "lat": 26.10439, "lng": 44.007233, "post_count": 18}, {"city": "عنيزة", "district": "الخزامى", "lat": 26.123796, "lng": 43.98762, "post_count": 22}, {"city": "عنيزة", "district": "الوفاء", "lat": 26.074025, "lng": 44.020138, "post_count": 43}, {"city": "عنيزة", "district": "الواحة", "lat": 26.077239, "lng": 44.093022, "post_count": 16}, {"city": "عنيزة", "district": "الجلده", "lat": 26.007801, "lng": 43.9965, "post_count": 8}, {"city": "عنيزة", "district": "الوادي", "lat": 26.151252, "lng": 43.977628, "post_count": 4}, {"city": "عنيزة", "district": "المصيف", "lat": 26.096465, "lng": 43.954214, "post_count": 36}, {"city": "عيون الجواء", "district": "النهضة", "lat": 26.481528, "lng": 43.621848, "post_count": 12}, {"city": "عيون الجواء", "district": "النزهة", "lat": 26.48023, "lng": 43.636812, "post_count": 5}, {"city": "الرس", "district": "الاحتفالات", "lat": 25.851555, "lng": 43.47227, "post_count": 13}, {"city": "الرس", "district": "الحزم", "lat": 25.867697, "lng": 43.520859, "post_count": 10}, {"city": "الرس", "district": "التعليم", "lat": 25.886533, "lng": 43.560286, "post_count": 6}, {"city": "الرس", "district": "الربوة", "lat": 25.8853, "lng": 43.52991, "post_count": 7}, {"city": "الرس", "district": "الشفاء", "lat": 25.881642, "lng": 43.516674, "post_count": 3}, {"city": "الرس", "district": "الجندل", "lat": 25.894276, "lng": 43.524654, "post_count": 5}, {"city": "الرس", "district": "المطار", "lat": 25.871187, "lng": 43.497617, "post_count": 5}, {"city": "الرس", "district": "الزهرة", "lat": 25.872705, "lng": 43.495545, "post_count": 3}, {"city": "الرس", "district": "الجريف", "lat": 25.861018, "lng": 43.524004, "post_count": 6}, {"city": "الرس", "district": "الاندلس", "lat": 25.845148, "lng": 43.512952, "post_count": 5}, {"city": "المذنب", "district": "الورود", "lat": 25.841844, "lng": 44.233389, "post_count": 3}, {"city": "رياض الخبراء", "district": "النزهة", "lat": 26.070488, "lng": 43.550464, "post_count": 8}, {"city": "رياض الخبراء", "district": "القدس", "lat": 26.054743, "lng": 43.569975, "post_count": 7}, {"city": "رياض الخبراء", "district": "الحزم", "lat": 26.039347, "lng": 43.548036, "post_count": 10}, {"city": "البدائع", "district": "الاندلس", "lat": 25.978867, "lng": 43.751162, "post_count": 6}, {"city": "البدائع", "district": "الاصفر", "lat": 25.975085, "lng": 43.71525, "post_count": 5}, {"city": "البدائع", "district": "رامات", "lat": 25.955964, "lng": 43.713402, "post_count": 6}, {"city": "البدائع", "district": "السلام", "lat": 25.990496, "lng": 43.749071, "post_count": 3}, {"city": "البدائع", "district": "العبدلية", "lat": 25.920142, "lng": 43.667106, "post_count": 4}, {"city": "البكيرية", "district": "الزهرة", "lat": 26.134627, "lng": 43.654869, "post_count": 20}, {"city": "البكيرية", "district": "الخليج", "lat": 26.131768, "lng": 43.667638, "post_count": 12}, {"city": "البكيرية", "district": "النهضة", "lat": 26.134146, "lng": 43.671212, "post_count": 3}, {"city": "البكيرية", "district": "النخيل", "lat": 26.184066, "lng": 43.680749, "post_count": 4}, {"city": "البكيرية", "district": "القادسية", "lat": 26.123864, "lng": 43.605684, "post_count": 62}, {"city": "البكيرية", "district": "الريان", "lat": 26.168119, "lng": 43.649633, "post_count": 4}, {"city": "البكيرية", "district": "الامل", "lat": 26.150592, "lng": 43.589715, "post_count": 94}, {"city": "البكيرية", "district": "الرياض", "lat": 26.135544, "lng": 43.607364, "post_count": 16}, {"city": "البكيرية", "district": "الديرة", "lat": 26.147399, "lng": 43.660559, "post_count": 30}, {"city": "البكيرية", "district": "الربوة", "lat": 26.174261, "lng": 43.602067, "post_count": 60}, {"city": "الشماسية", "district": "السلام", "lat": 26.294351, "lng": 44.255605, "post_count": 6}, {"city": "عقلة الصقور", "district": "الخليج", "lat": 25.836347, "lng": 42.179196, "post_count": 4}, {"city": "عقلة الصقور", "district": "الملك فهد", "lat": 25.820964, "lng": 42.184321, "post_count": 15}, {"city": "عقلة الصقور", "district": "النهضة", "lat": 25.825386, "lng": 42.210602, "post_count": 3}, {"city": "الدمام", "district": "الخالدية الشمالية", "lat": 26.426491, "lng": 50.134836, "post_count": 9}, {"city": "الدمام", "district": "الناصرية", "lat": 26.424876, "lng": 50.121518, "post_count": 7}, {"city": "الدمام", "district": "الأثير", "lat": 26.436265, "lng": 50.058599, "post_count": 34}, {"city": "الدمام", "district": "الجلوية", "lat": 26.437068, "lng": 50.071007, "post_count": 31}, {"city": "الدمام", "district": "النخيل", "lat": 26.440439, "lng": 50.09013, "post_count": 14}, {"city": "الدمام", "district": "القزاز", "lat": 26.4342, "lng": 50.091809, "post_count": 7}, {"city": "الدمام", "district": "البادية", "lat": 26.428505, "lng": 50.091051, "post_count": 39}, {"city": "الدمام", "district": "الدواسر", "lat": 26.446713, "lng": 50.102165, "post_count": 9}, {"city": "الدمام", "district": "العنود", "lat": 26.443777, "lng": 50.080169, "post_count": 51}, {"city": "الدمام", "district": "الشاطئ الغربي", "lat": 26.483878, "lng": 50.122766, "post_count": 63}, {"city": "الدمام", "district": "الضباب", "lat": 26.426157, "lng": 50.047187, "post_count": 46}, {"city": "الدمام", "district": "المنار", "lat": 26.375213, "lng": 50.036124, "post_count": 145}, {"city": "الدمام", "district": "النور", "lat": 26.429212, "lng": 50.024557, "post_count": 217}, {"city": "الدمام", "district": "السلام", "lat": 26.454318, "lng": 50.104237, "post_count": 57}, {"city": "الدمام", "district": "الزهور", "lat": 26.45342, "lng": 50.086172, "post_count": 121}, {"city": "الدمام", "district": "المريكبات", "lat": 26.418682, "lng": 50.096493, "post_count": 10}, {"city": "الدمام", "district": "النهضة", "lat": 26.374842, "lng": 50.143489, "post_count": 36}, {"city": "الدمام", "district": "ضاحية الملك فهد", "lat": 26.41922, "lng": 49.99222, "post_count": 514}, {"city": "الدمام", "district": "السيف", "lat": 26.39084, "lng": 50.210239, "post_count": 662}, {"city": "الدمام", "district": "الصناعية", "lat": 26.448988, "lng": 50.029557, "post_count": 8}, {"city": "الدمام", "district": "احد", "lat": 26.41483, "lng": 50.039635, "post_count": 55}, {"city": "الدمام", "district": "بدر", "lat": 26.40281, "lng": 50.024933, "post_count": 113}, {"city": "الدمام", "district": "الخليج", "lat": 26.446028, "lng": 50.090164, "post_count": 30}, {"city": "الدمام", "district": "الروضة", "lat": 26.400661, "lng": 50.081096, "post_count": 36}, {"city": "الدمام", "district": "طيبة", "lat": 26.358104, "lng": 50.053225, "post_count": 185}, {"city": "الدمام", "district": "الجامعيين", "lat": 26.385942, "lng": 50.098649, "post_count": 118}, {"city": "الدمام", "district": "الريان", "lat": 26.407437, "lng": 50.09763, "post_count": 10}, {"city": "الدمام", "district": "القادسية", "lat": 26.41613, "lng": 50.071014, "post_count": 18}, {"city": "الدمام", "district": "غرناطة", "lat": 26.425485, "lng": 50.080475, "post_count": 23}, {"city": "الدمام", "district": "العدامة", "lat": 26.434222, "lng": 50.100866, "post_count": 30}, {"city": "الدمام", "district": "الامير محمد بن سعود", "lat": 26.430717, "lng": 50.114839, "post_count": 17}, {"city": "الدمام", "district": "الطبيشي", "lat": 26.43467, "lng": 50.121957, "post_count": 12}, {"city": "الدمام", "district": "المزروعية", "lat": 26.442297, "lng": 50.124712, "post_count": 39}, {"city": "الدمام", "district": "الصفا", "lat": 26.389426, "lng": 50.180972, "post_count": 3}, {"city": "الدمام", "district": "المنتزه", "lat": 26.378513, "lng": 50.126043, "post_count": 106}, {"city": "الدمام", "district": "النزهة", "lat": 26.393323, "lng": 50.107172, "post_count": 20}, {"city": "الدمام", "district": "الفردوس", "lat": 26.37827, "lng": 50.117636, "post_count": 62}, {"city": "الدمام", "district": "قصر الخليج", "lat": 26.359923, "lng": 50.139956, "post_count": 23}, {"city": "الدمام", "district": "الخضرية", "lat": 26.44569, "lng": 50.053774, "post_count": 8}, {"city": "الدمام", "district": "مدينة العمال", "lat": 26.42517, "lng": 50.109082, "post_count": 24}, {"city": "الدمام", "district": "العمامرة", "lat": 26.444526, "lng": 50.111902, "post_count": 5}, {"city": "الدمام", "district": "البديع", "lat": 26.447988, "lng": 50.114099, "post_count": 11}, {"city": "الدمام", "district": "الشاطئ الشرقي", "lat": 26.472215, "lng": 50.130204, "post_count": 79}, {"city": "الدمام", "district": "الفيحاء", "lat": 26.43746, "lng": 50.040883, "post_count": 23}, {"city": "الدمام", "district": "الراكة الشمالية", "lat": 26.371031, "lng": 50.189517, "post_count": 67}, {"city": "الدمام", "district": "النورس", "lat": 26.411867, "lng": 50.185735, "post_count": 24}, {"city": "الدمام", "district": "الفيصلية", "lat": 26.386571, "lng": 50.0599, "post_count": 103}, {"city": "الدمام", "district": "الربيع", "lat": 26.441156, "lng": 50.116261, "post_count": 8}, {"city": "الدمام", "district": "الحمراء", "lat": 26.467839, "lng": 50.092639, "post_count": 21}, {"city": "الدمام", "district": "الجوهرة", "lat": 26.4661, "lng": 50.07911, "post_count": 121}, {"city": "الدمام", "district": "الدانة", "lat": 26.466385, "lng": 50.045515, "post_count": 3}, {"city": "الدمام", "district": "المحمدية", "lat": 26.459909, "lng": 50.05666, "post_count": 13}, {"city": "الدمام", "district": "العزيزية", "lat": 26.458294, "lng": 50.071469, "post_count": 27}, {"city": "الدمام", "district": "الواحة", "lat": 26.385269, "lng": 50.088427, "post_count": 150}, {"city": "الدمام", "district": "الحسام", "lat": 26.388054, "lng": 50.172971, "post_count": 49}, {"city": "الدمام", "district": "الخالدية الجنوبية", "lat": 26.416276, "lng": 50.161233, "post_count": 19}, {"city": "الدمام", "district": "الشعلة", "lat": 26.343113, "lng": 50.063945, "post_count": 768}, {"city": "الدمام", "district": "الأنوار", "lat": 26.370499, "lng": 49.998875, "post_count": 18}, {"city": "الدمام", "district": "المطار", "lat": 26.373981, "lng": 49.941937, "post_count": 29}, {"city": "الدمام", "district": "الأمانة", "lat": 26.38713, "lng": 49.968288, "post_count": 62}, {"city": "الدمام", "district": "الفرسان", "lat": 26.356258, "lng": 49.961204, "post_count": 76}, {"city": "الدمام", "district": "الندى", "lat": 26.375914, "lng": 50.0785, "post_count": 71}, {"city": "الدمام", "district": "الإسكان الجنوبي", "lat": 26.319429, "lng": 49.996955, "post_count": 19}, {"city": "الدمام", "district": "العروبة", "lat": 26.335964, "lng": 50.006001, "post_count": 115}, {"city": "الدمام", "district": "الاسكان الشمالي", "lat": 26.356662, "lng": 49.980993, "post_count": 3}, {"city": "الخبر", "district": "التحلية", "lat": 26.189348, "lng": 50.193606, "post_count": 125}, {"city": "الخبر", "district": "ابن سيناء", "lat": 26.241477, "lng": 50.200879, "post_count": 6}, {"city": "الخبر", "district": "الحزام الاخضر", "lat": 26.305909, "lng": 50.19567, "post_count": 28}, {"city": "الخبر", "district": "صناعية الثقبة", "lat": 26.25626, "lng": 50.200988, "post_count": 8}, {"city": "الخبر", "district": "التعاون", "lat": 26.217535, "lng": 50.18677, "post_count": 36}, {"city": "الخبر", "district": "الراكة الجنوبية", "lat": 26.35326, "lng": 50.201103, "post_count": 78}, {"city": "الخبر", "district": "مدينة العمال", "lat": 26.295637, "lng": 50.203624, "post_count": 44}, {"city": "الخبر", "district": "العقربية", "lat": 26.291488, "lng": 50.192981, "post_count": 45}, {"city": "الخبر", "district": "الخبر الجنوبية", "lat": 26.271974, "lng": 50.210233, "post_count": 59}, {"city": "الخبر", "district": "الروابي", "lat": 26.331279, "lng": 50.208851, "post_count": 37}, {"city": "الخبر", "district": "اليرموك", "lat": 26.312861, "lng": 50.221964, "post_count": 10}, {"city": "الخبر", "district": "قرطبة", "lat": 26.345733, "lng": 50.183241, "post_count": 32}, {"city": "الخبر", "district": "الجوهرة", "lat": 26.324894, "lng": 50.191768, "post_count": 14}, {"city": "الخبر", "district": "الحزام الذهبي", "lat": 26.314954, "lng": 50.201338, "post_count": 18}, {"city": "الخبر", "district": "الاندلس", "lat": 26.320837, "lng": 50.186621, "post_count": 13}, {"city": "الخبر", "district": "البندرية", "lat": 26.305971, "lng": 50.214044, "post_count": 58}, {"city": "الخبر", "district": "الثقبة", "lat": 26.276016, "lng": 50.191145, "post_count": 111}, {"city": "الخبر", "district": "العليا", "lat": 26.296694, "lng": 50.176451, "post_count": 122}, {"city": "الخبر", "district": "الاسكان", "lat": 26.258249, "lng": 50.21216, "post_count": 4}, {"city": "الخبر", "district": "الحمراء", "lat": 26.226936, "lng": 50.201927, "post_count": 871}, {"city": "الخبر", "district": "الجسر", "lat": 26.211462, "lng": 50.206748, "post_count": 61}, {"city": "الخبر", "district": "الخزامى", "lat": 26.212474, "lng": 50.194053, "post_count": 92}, {"city": "الخبر", "district": "البحر", "lat": 26.358583, "lng": 50.227364, "post_count": 297}, {"city": "الخبر", "district": "الكورنيش", "lat": 26.317825, "lng": 50.221985, "post_count": 27}, {"city": "الخبر", "district": "صناعية الفوازية", "lat": 26.238944, "lng": 50.213851, "post_count": 10}, {"city": "الخبر", "district": "الخور", "lat": 26.228653, "lng": 50.217731, "post_count": 48}, {"city": "الخبر", "district": "البحيرة", "lat": 26.193392, "lng": 50.179433, "post_count": 114}, {"city": "الخبر", "district": "الشراع", "lat": 26.163038, "lng": 50.149621, "post_count": 258}, {"city": "الخبر", "district": "الكوثر", "lat": 26.146869, "lng": 50.119618, "post_count": 88}, {"city": "الخبر", "district": "الرجاء", "lat": 26.163076, "lng": 50.118557, "post_count": 25}, {"city": "الخبر", "district": "الصواري", "lat": 26.186115, "lng": 50.152183, "post_count": 257}, {"city": "الخبر", "district": "العقيق", "lat": 26.099299, "lng": 50.14602, "post_count": 148}, {"city": "الخبر", "district": "المها", "lat": 26.194299, "lng": 50.125732, "post_count": 13}, {"city": "الخبر", "district": "الامواج", "lat": 26.138487, "lng": 50.142798, "post_count": 254}, {"city": "الخبر", "district": "اللؤلؤ", "lat": 26.119208, "lng": 50.14374, "post_count": 262}, {"city": "الخبر", "district": "المرجان", "lat": 26.114086, "lng": 50.121109, "post_count": 26}, {"city": "حفر الباطن", "district": "التلال", "lat": 28.445858, "lng": 45.93642, "post_count": 8}, {"city": "حفر الباطن", "district": "الشفاء", "lat": 28.250183, "lng": 45.925934, "post_count": 14}, {"city": "حفر الباطن", "district": "الوادي", "lat": 28.358868, "lng": 45.970785, "post_count": 7}, {"city": "حفر الباطن", "district": "البلدية", "lat": 28.426966, "lng": 45.984378, "post_count": 4}, {"city": "حفر الباطن", "district": "العزيزية", "lat": 28.451643, "lng": 45.967131, "post_count": 4}, {"city": "حفر الباطن", "district": "الفيحاء", "lat": 28.45491, "lng": 46.013454, "post_count": 3}, {"city": "حفر الباطن", "district": "المحمدية", "lat": 28.38165, "lng": 45.975194, "post_count": 10}, {"city": "حفر الباطن", "district": "الخالدية", "lat": 28.42133, "lng": 45.956128, "post_count": 4}, {"city": "حفر الباطن", "district": "قرطبة", "lat": 28.300543, "lng": 45.958916, "post_count": 6}, {"city": "حفر الباطن", "district": "الروضة", "lat": 28.454314, "lng": 46.051274, "post_count": 3}, {"city": "حفر الباطن", "district": "السليمانية", "lat": 28.39974, "lng": 45.93614, "post_count": 10}, {"city": "حفر الباطن", "district": "الفيصلية", "lat": 28.395165, "lng": 45.957938, "post_count": 6}, {"city": "حفر الباطن", "district": "اليرموك", "lat": 28.280437, "lng": 45.953429, "post_count": 15}, {"city": "حفر الباطن", "district": "الريان", "lat": 28.348355, "lng": 45.95823, "post_count": 12}, {"city": "حفر الباطن", "district": "غرناطة", "lat": 28.273465, "lng": 45.940947, "post_count": 8}, {"city": "القيصومة", "district": "الشفاء", "lat": 28.286227, "lng": 46.118427, "post_count": 3}, {"city": "القطيف", "district": "الخزامى", "lat": 26.565523, "lng": 50.015532, "post_count": 4}, {"city": "القطيف", "district": "المدارس", "lat": 26.578855, "lng": 50.054803, "post_count": 3}, {"city": "القطيف", "district": "باب الشمال", "lat": 26.560448, "lng": 50.002192, "post_count": 3}, {"city": "القطيف", "district": "الزهراء", "lat": 26.603146, "lng": 50.011344, "post_count": 14}, {"city": "قرية العليا", "district": "غرناطة", "lat": 27.554569, "lng": 47.679793, "post_count": 3}, {"city": "قرية العليا", "district": "قرطبة", "lat": 27.545268, "lng": 47.721753, "post_count": 3}, {"city": "قرية العليا", "district": "السلام", "lat": 27.55381, "lng": 47.681781, "post_count": 3}, {"city": "الجبيل", "district": "المرقاب", "lat": 26.999836, "lng": 49.648797, "post_count": 6}, {"city": "الجبيل", "district": "طيبة", "lat": 26.987735, "lng": 49.654005, "post_count": 9}, {"city": "الجبيل", "district": "الروضة", "lat": 26.96163, "lng": 49.670231, "post_count": 15}, {"city": "الجبيل", "district": "الضباب", "lat": 27.021842, "lng": 49.629154, "post_count": 10}, {"city": "الجبيل", "district": "الدانة", "lat": 27.011261, "lng": 49.651294, "post_count": 3}, {"city": "الجبيل", "district": "البستان", "lat": 26.99141, "lng": 49.644086, "post_count": 5}, {"city": "الجبيل", "district": "غرناطة", "lat": 26.879172, "lng": 49.759063, "post_count": 26}, {"city": "الجبيل", "district": "البحر", "lat": 26.919866, "lng": 49.72099, "post_count": 15}, {"city": "الجبيل", "district": "الحمراء", "lat": 26.927847, "lng": 49.724238, "post_count": 38}, {"city": "الجبيل", "district": "العزيزية", "lat": 26.845264, "lng": 49.802868, "post_count": 124}, {"city": "الجبيل", "district": "قرطبة", "lat": 26.863667, "lng": 49.782048, "post_count": 39}, {"city": "الجبيل", "district": "الفيحاء", "lat": 27.115177, "lng": 49.547215, "post_count": 3}, {"city": "الجبيل", "district": "دارين", "lat": 27.171242, "lng": 49.576835, "post_count": 4}, {"city": "الجبيل", "district": "القدس", "lat": 27.1301, "lng": 49.543388, "post_count": 3}, {"city": "الجبيل", "district": "جلمودة", "lat": 27.173187, "lng": 49.529754, "post_count": 20}, {"city": "الجبيل", "district": "المطرفية", "lat": 27.102579, "lng": 49.517164, "post_count": 4}, {"city": "النعيرية", "district": "الربيع", "lat": 27.480607, "lng": 48.517643, "post_count": 23}, {"city": "النعيرية", "district": "الخليج", "lat": 27.468626, "lng": 48.525538, "post_count": 12}, {"city": "النعيرية", "district": "المحمدية", "lat": 27.471399, "lng": 48.475449, "post_count": 3}, {"city": "النعيرية", "district": "الفيصلية", "lat": 27.482018, "lng": 48.469791, "post_count": 8}, {"city": "بقيق", "district": "المطار", "lat": 25.927448, "lng": 49.656932, "post_count": 10}, {"city": "العيون", "district": "الرابية", "lat": 25.577137, "lng": 49.5571, "post_count": 5}, {"city": "الخفجي", "district": "السلام", "lat": 28.38707, "lng": 48.449625, "post_count": 4}, {"city": "الخفجي", "district": "الشاطئ", "lat": 28.470327, "lng": 48.487423, "post_count": 3}, {"city": "الخفجي", "district": "الروضة", "lat": 28.399374, "lng": 48.460815, "post_count": 5}, {"city": "الخفجي", "district": "الخزامى", "lat": 28.453694, "lng": 48.481987, "post_count": 3}, {"city": "الخفجي", "district": "العزيزية", "lat": 28.458494, "lng": 48.491381, "post_count": 4}, {"city": "الخفجي", "district": "الملك فهد", "lat": 28.411358, "lng": 48.482005, "post_count": 3}, {"city": "راس تنورة", "district": "الاندلس", "lat": 26.702556, "lng": 50.068161, "post_count": 8}, {"city": "راس تنورة", "district": "الفيحاء", "lat": 26.713114, "lng": 50.053843, "post_count": 8}, {"city": "راس تنورة", "district": "الدانة", "lat": 26.705331, "lng": 50.063272, "post_count": 6}, {"city": "ابها", "district": "المنهل", "lat": 18.222167, "lng": 42.514811, "post_count": 6}, {"city": "ابها", "district": "النزهة", "lat": 18.211756, "lng": 42.512431, "post_count": 5}, {"city": "ابها", "district": "ذرة", "lat": 18.203529, "lng": 42.508094, "post_count": 6}, {"city": "ابها", "district": "شمسان", "lat": 18.228981, "lng": 42.505756, "post_count": 13}, {"city": "ابها", "district": "القرى", "lat": 18.237919, "lng": 42.494496, "post_count": 11}, {"city": "ابها", "district": "الربوة", "lat": 18.206976, "lng": 42.524477, "post_count": 7}, {"city": "ابها", "district": "النسيم", "lat": 18.209588, "lng": 42.537412, "post_count": 7}, {"city": "ابها", "district": "الاندلس", "lat": 18.217204, "lng": 42.518558, "post_count": 6}, {"city": "ابها", "district": "الوصايف", "lat": 18.236424, "lng": 42.483936, "post_count": 11}, {"city": "ابها", "district": "الشفاء", "lat": 18.207432, "lng": 42.494156, "post_count": 5}, {"city": "ابها", "district": "المروج", "lat": 18.215276, "lng": 42.556766, "post_count": 102}, {"city": "ابها", "district": "العرين", "lat": 18.233392, "lng": 42.555345, "post_count": 69}, {"city": "ابها", "district": "البديع", "lat": 18.22462, "lng": 42.598455, "post_count": 97}, {"city": "ابها", "district": "الصفا", "lat": 18.223039, "lng": 42.579697, "post_count": 4}, {"city": "ابها", "district": "التعاون", "lat": 18.269085, "lng": 42.462167, "post_count": 9}, {"city": "ابها", "district": "الروضة", "lat": 18.232479, "lng": 42.629554, "post_count": 46}, {"city": "ابها", "district": "الروابي", "lat": 18.25656, "lng": 42.60829, "post_count": 138}, {"city": "ابها", "district": "المطار", "lat": 18.260034, "lng": 42.642844, "post_count": 10}, {"city": "ابها", "district": "المصيف", "lat": 18.284728, "lng": 42.514702, "post_count": 5}, {"city": "ابها", "district": "سلطانة", "lat": 18.273418, "lng": 42.633945, "post_count": 80}, {"city": "ابها", "district": "البحيره", "lat": 18.223948, "lng": 42.470807, "post_count": 8}, {"city": "ابها", "district": "العقيق", "lat": 18.194964, "lng": 42.608386, "post_count": 41}, {"city": "ابها", "district": "السلام", "lat": 18.244736, "lng": 42.470595, "post_count": 19}, {"city": "ابها", "district": "الزهور", "lat": 18.313352, "lng": 42.624988, "post_count": 124}, {"city": "ابها", "district": "المسك", "lat": 18.176723, "lng": 42.62065, "post_count": 4}, {"city": "خميس مشيط", "district": "الراقي", "lat": 18.32895, "lng": 42.753114, "post_count": 23}, {"city": "خميس مشيط", "district": "الواحة", "lat": 18.332136, "lng": 42.69523, "post_count": 9}, {"city": "خميس مشيط", "district": "الجزيرة", "lat": 18.413824, "lng": 42.678926, "post_count": 4}, {"city": "خميس مشيط", "district": "شباعة", "lat": 18.319831, "lng": 42.725569, "post_count": 5}, {"city": "خميس مشيط", "district": "المعمورة", "lat": 18.326818, "lng": 42.72077, "post_count": 6}, {"city": "خميس مشيط", "district": "النسيم", "lat": 18.291122, "lng": 42.763198, "post_count": 6}, {"city": "خميس مشيط", "district": "الصقور", "lat": 18.299724, "lng": 42.759057, "post_count": 5}, {"city": "خميس مشيط", "district": "النخيل", "lat": 18.296856, "lng": 42.747906, "post_count": 4}, {"city": "خميس مشيط", "district": "الشرفية", "lat": 18.305671, "lng": 42.746152, "post_count": 3}, {"city": "خميس مشيط", "district": "الربيع", "lat": 18.31501, "lng": 42.690531, "post_count": 16}, {"city": "خميس مشيط", "district": "الدوحة", "lat": 18.399836, "lng": 42.722177, "post_count": 4}, {"city": "خميس مشيط", "district": "القافلة", "lat": 18.424085, "lng": 42.719129, "post_count": 35}, {"city": "خميس مشيط", "district": "الرونه", "lat": 18.227645, "lng": 42.805929, "post_count": 5}, {"city": "خميس مشيط", "district": "الشفاء", "lat": 18.26416, "lng": 42.737124, "post_count": 31}, {"city": "خميس مشيط", "district": "ذلالة", "lat": 18.246519, "lng": 42.752208, "post_count": 11}, {"city": "خميس مشيط", "district": "الرصراص 2", "lat": 18.252599, "lng": 42.779096, "post_count": 6}, {"city": "خميس مشيط", "district": "الجامعيين", "lat": 18.311814, "lng": 42.669954, "post_count": 16}, {"city": "خميس مشيط", "district": "الوسام", "lat": 18.350491, "lng": 42.76521, "post_count": 19}, {"city": "خميس مشيط", "district": "اليرموك", "lat": 18.338424, "lng": 42.759786, "post_count": 46}, {"city": "خميس مشيط", "district": "الحرابى", "lat": 18.252792, "lng": 42.740391, "post_count": 4}, {"city": "خميس مشيط", "district": "الهرير الغربى", "lat": 18.235821, "lng": 42.768975, "post_count": 8}, {"city": "خميس مشيط", "district": "الظرفة", "lat": 18.291768, "lng": 42.697295, "post_count": 102}, {"city": "خميس مشيط", "district": "تارة", "lat": 18.273422, "lng": 42.668217, "post_count": 5}, {"city": "خميس مشيط", "district": "الجبل", "lat": 18.26034, "lng": 42.67189, "post_count": 13}, {"city": "خميس مشيط", "district": "شمال التضامن", "lat": 18.35495, "lng": 42.694535, "post_count": 37}, {"city": "خميس مشيط", "district": "نشوان", "lat": 18.343339, "lng": 42.725562, "post_count": 14}, {"city": "خميس مشيط", "district": "المصيف", "lat": 18.286245, "lng": 42.662728, "post_count": 18}, {"city": "خميس مشيط", "district": "الصناعية", "lat": 18.384036, "lng": 42.700639, "post_count": 6}, {"city": "خميس مشيط", "district": "الوفاء", "lat": 18.33936, "lng": 42.749244, "post_count": 15}, {"city": "خميس مشيط", "district": "التعاون", "lat": 18.361766, "lng": 42.711181, "post_count": 17}, {"city": "خميس مشيط", "district": "ذهبان الغربى", "lat": 18.272332, "lng": 42.74044, "post_count": 6}, {"city": "خميس مشيط", "district": "ذهبان الشرقى", "lat": 18.270329, "lng": 42.750285, "post_count": 9}, {"city": "خميس مشيط", "district": "الرصراص 1", "lat": 18.262246, "lng": 42.765141, "post_count": 7}, {"city": "خميس مشيط", "district": "الوقواق", "lat": 18.256607, "lng": 42.75179, "post_count": 3}, {"city": "احد رفيده", "district": "النهضة", "lat": 18.184588, "lng": 42.859293, "post_count": 11}, {"city": "احد رفيده", "district": "الخليج", "lat": 18.192752, "lng": 42.820262, "post_count": 18}, {"city": "طريب", "district": "النزهة", "lat": 18.557016, "lng": 43.197494, "post_count": 5}, {"city": "طريب", "district": "الفاخرية", "lat": 18.522396, "lng": 43.227589, "post_count": 4}, {"city": "بيشة", "district": "الخزان", "lat": 20.052432, "lng": 42.683095, "post_count": 8}, {"city": "بيشة", "district": "النزهة", "lat": 19.893507, "lng": 42.608803, "post_count": 3}, {"city": "بيشة", "district": "الامير سلطان", "lat": 19.932241, "lng": 42.603044, "post_count": 5}, {"city": "النماص", "district": "السلام", "lat": 19.129116, "lng": 42.132188, "post_count": 4}, {"city": "تنومة", "district": "الامل", "lat": 18.941513, "lng": 42.201161, "post_count": 3}, {"city": "سراة عبيدة", "district": "الروضة", "lat": 18.078945, "lng": 43.124034, "post_count": 3}, {"city": "تبوك", "district": "الاخضر", "lat": 28.360338, "lng": 36.503932, "post_count": 8}, {"city": "تبوك", "district": "البوادي", "lat": 28.360381, "lng": 36.524627, "post_count": 13}, {"city": "تبوك", "district": "اليرموك", "lat": 28.350172, "lng": 36.50647, "post_count": 10}, {"city": "تبوك", "district": "النظيم", "lat": 28.371027, "lng": 36.529791, "post_count": 3}, {"city": "تبوك", "district": "الحمراء", "lat": 28.369633, "lng": 36.575665, "post_count": 3}, {"city": "تبوك", "district": "سلطانة", "lat": 28.393009, "lng": 36.595608, "post_count": 7}, {"city": "تبوك", "district": "الفيصلية الجنوبية", "lat": 28.392992, "lng": 36.57783, "post_count": 8}, {"city": "تبوك", "district": "الفيصلية الشمالية", "lat": 28.40661, "lng": 36.564022, "post_count": 3}, {"city": "تبوك", "district": "النهضة", "lat": 28.389791, "lng": 36.527845, "post_count": 4}, {"city": "تبوك", "district": "الروضة", "lat": 28.405462, "lng": 36.522547, "post_count": 4}, {"city": "تبوك", "district": "الريان", "lat": 28.46777, "lng": 36.55548, "post_count": 18}, {"city": "تبوك", "district": "الورود", "lat": 28.411231, "lng": 36.567951, "post_count": 3}, {"city": "تبوك", "district": "الفلاح", "lat": 28.480041, "lng": 36.554925, "post_count": 5}, {"city": "تبوك", "district": "الجامعة", "lat": 28.464112, "lng": 36.473671, "post_count": 4}, {"city": "تبوك", "district": "القادسية الثاني", "lat": 28.442726, "lng": 36.50604, "post_count": 8}, {"city": "تبوك", "district": "القدس", "lat": 28.412025, "lng": 36.462391, "post_count": 7}, {"city": "تبوك", "district": "التعاون", "lat": 28.423979, "lng": 36.468758, "post_count": 5}, {"city": "تبوك", "district": "القادسية الاول", "lat": 28.426198, "lng": 36.514526, "post_count": 4}, {"city": "تبوك", "district": "غرناطة", "lat": 28.411798, "lng": 36.469375, "post_count": 6}, {"city": "تبوك", "district": "الياسمين", "lat": 28.424216, "lng": 36.4494, "post_count": 4}, {"city": "تيماء", "district": "الرحمانية", "lat": 27.609072, "lng": 38.500799, "post_count": 5}, {"city": "حائل", "district": "اجا", "lat": 27.559871, "lng": 41.690079, "post_count": 4}, {"city": "حائل", "district": "العزيزية", "lat": 27.525799, "lng": 41.688699, "post_count": 9}, {"city": "حائل", "district": "الخزامى", "lat": 27.572427, "lng": 41.724133, "post_count": 17}, {"city": "حائل", "district": "حدري البلاد", "lat": 27.548116, "lng": 41.76515, "post_count": 7}, {"city": "حائل", "district": "السويفلة", "lat": 27.555584, "lng": 41.746703, "post_count": 9}, {"city": "حائل", "district": "الوسيطاء", "lat": 27.515688, "lng": 41.668996, "post_count": 3}, {"city": "حائل", "district": "صبابة", "lat": 27.525299, "lng": 41.648078, "post_count": 3}, {"city": "حائل", "district": "المطار", "lat": 27.502861, "lng": 41.691895, "post_count": 5}, {"city": "حائل", "district": "المدائن", "lat": 27.410811, "lng": 41.719071, "post_count": 35}, {"city": "حائل", "district": "النقرة", "lat": 27.474166, "lng": 41.665365, "post_count": 35}, {"city": "حائل", "district": "السويفلة", "lat": 27.555584, "lng": 41.746703, "post_count": 9}, {"city": "حائل", "district": "المصيف", "lat": 27.584767, "lng": 41.674478, "post_count": 6}, {"city": "حائل", "district": "المنتزه الشرقي", "lat": 27.547982, "lng": 41.699502, "post_count": 4}, {"city": "حائل", "district": "اللقيطة", "lat": 27.645918, "lng": 41.695055, "post_count": 7}, {"city": "حائل", "district": "الوادي", "lat": 27.425585, "lng": 41.587625, "post_count": 35}, {"city": "حائل", "district": "الرصف", "lat": 27.445119, "lng": 41.612088, "post_count": 13}, {"city": "حائل", "district": "ضاحية الملك فهد", "lat": 27.643542, "lng": 41.768613, "post_count": 7}, {"city": "حائل", "district": "قفار", "lat": 27.400828, "lng": 41.605164, "post_count": 34}, {"city": "الشنان", "district": "السلام", "lat": 27.199065, "lng": 42.460027, "post_count": 26}, {"city": "الشنان", "district": "العزيزية", "lat": 27.208893, "lng": 42.46904, "post_count": 3}, {"city": "بقعاء", "district": "ج2", "lat": 27.927265, "lng": 42.359224, "post_count": 3}, {"city": "عرعر", "district": "غرناطة الشرقي", "lat": 31.003886, "lng": 41.19149, "post_count": 16}, {"city": "عرعر", "district": "ضاحية الملك فهد", "lat": 30.924186, "lng": 41.095998, "post_count": 3}, {"city": "عرعر", "district": "قرطبة", "lat": 30.998498, "lng": 41.14815, "post_count": 3}, {"city": "عرعر", "district": "غرناطة الغربي", "lat": 31.007902, "lng": 41.171592, "post_count": 8}, {"city": "جازان", "district": "الصفا", "lat": 16.884039, "lng": 42.566177, "post_count": 5}, {"city": "جازان", "district": "المطار", "lat": 16.894995, "lng": 42.570748, "post_count": 19}, {"city": "جازان", "district": "الروابي", "lat": 17.000397, "lng": 42.633152, "post_count": 28}, {"city": "جازان", "district": "الزهور", "lat": 16.892325, "lng": 42.615862, "post_count": 20}, {"city": "جازان", "district": "الشاطئ", "lat": 16.922958, "lng": 42.556526, "post_count": 76}, {"city": "جازان", "district": "الروضة", "lat": 16.920935, "lng": 42.568068, "post_count": 61}, {"city": "جازان", "district": "النور", "lat": 16.937255, "lng": 42.627584, "post_count": 10}, {"city": "جازان", "district": "الجبل", "lat": 16.880133, "lng": 42.550643, "post_count": 3}, {"city": "ابو عريش", "district": "الروضة", "lat": 16.960089, "lng": 42.816768, "post_count": 8}, {"city": "ابو عريش", "district": "الصفا", "lat": 16.977488, "lng": 42.818153, "post_count": 3}, {"city": "نجران", "district": "الفهد", "lat": 17.573269, "lng": 44.230106, "post_count": 4}, {"city": "الباحة", "district": "الشروق", "lat": 20.085074, "lng": 41.574998, "post_count": 3}, {"city": "الباحة", "district": "النزهة", "lat": 20.014797, "lng": 41.480684, "post_count": 3}, {"city": "دومة الجندل", "district": "الرديفة والرافعية", "lat": 29.807425, "lng": 39.669305, "post_count": 3}]